,name,long,lat,df_name,cat1,cat2,cat1_name,cat2_name
0,FORZE ARMATE,9.107364204820977,45.4562903840777,acqua,,,,
1,LORENTEGGIO,9.12515070197437,45.45818809353661,acqua,,,,
2,BANDE NERE,9.136148704614332,45.461792054001286,acqua,,,,
3,GIAMBELLINO,9.153321879586946,45.45234812900838,acqua,,,,
4,GRATOSOGLIO - Q.RE MISSAGLIA - Q.RE TERRAZZE,9.171006044160109,45.4081280716551,acqua,,,,
5,SARPI,9.169107429141244,45.48156243544458,acqua,,,,
6,BICOCCA,9.213841128356297,45.51657187551272,acqua,,,,
7,ORTOMERCATO,9.224769559330497,45.45043280579552,acqua,,,,
8,QUINTO ROMANO,9.087813282320257,45.4766843745143,acqua,,,,
9,Q.RE GALLARATESE - Q.RE SAN LEONARDO - LAMPUGNANO,9.102262958699908,45.50511180338909,acqua,,,,
10,BOVISASCA,9.1542674749075,45.51606510737123,acqua,,,,
11,DERGANO,9.177964680142273,45.49942019430304,acqua,,,,
12,TIBALDI,9.183962716882332,45.43763267444506,acqua,,,,
13,LODI - CORVETTO,9.223947610216134,45.4346777968288,acqua,,,,
14,TALIEDO - MORSENCHIO - Q.RE FORLANINI,9.24238738712221,45.45767401488002,acqua,,,,
15,CIMIANO - ROTTOLE - Q.RE FELTRE,9.24749947568351,45.502288372120695,acqua,,,,
16,MONLUE' - PONTE LAMBRO,9.263834883103598,45.44196985783091,acqua,,,,
17,TRENNO,9.100852619794331,45.490746160162736,acqua,,,,
18,VILLAPIZZONE - CAGNOLA - BOLDINASCO,9.153087242579582,45.49495740936757,acqua,,,,
19,STADERA - CHIESA ROSSA - Q.RE TORRETTA - CONCA FALLATA,9.175277322267366,45.430468192705774,acqua,,,,
20,PORTA TICINESE - CONCA DEL NAVIGLIO,9.182058537495635,45.44744138128189,acqua,,,,
21,MORIVIONE,9.188878613587791,45.443050497940696,acqua,,,,
22,PORTA VIGENTINA - PORTA LODOVICA,9.191147098596094,45.45673795669834,acqua,,,,
23,NIGUARDA - CA' GRANDA - PRATO CENTENARO - Q.RE FULVIO TESTI,9.191560006686457,45.50787438411484,acqua,,,,
24,GIARDINI P.TA VENEZIA,9.196807321566808,45.47310766998061,acqua,,,,
25,LAMBRATE - ORTICA,9.241544564470658,45.48116239595003,acqua,,,,
26,BRUZZANO,9.174873011861369,45.523295488765775,acqua,,,,
27,GORLA - PRECOTTO,9.220462627149114,45.5056229403831,acqua,,,,
28,ROGOREDO - SANTA GIULIA,9.243622927047426,45.43198719061255,acqua,,,,
29,Q.RE GALLARATESE - Q.RE SAN LEONARDO - LAMPUGNANO,9.115931266131817,45.49607966234641,acqua,,,,
30,GRECO - SEGNANO,9.210270858558928,45.49731407219568,acqua,,,,
31,LORETO - CASORETTO - NOLO,9.223692877370484,45.48896280389881,acqua,,,,
32,CITTA' STUDI,9.23155045411946,45.478365514483805,acqua,,,,
33,PARCO BOSCO IN CITTA',9.102168516470384,45.463225313098334,acqua,,,,
34,STADIO - IPPODROMI,9.132968468898955,45.47544731418047,acqua,,,,
35,GIAMBELLINO,9.134857221874045,45.4470780214164,acqua,,,,
36,QUARTO OGGIARO - VIALBA - MUSOCCO,9.136606158785469,45.51656454457765,acqua,,,,
37,BARONA,9.146449857096654,45.43232035943181,acqua,,,,
38,NIGUARDA - CA' GRANDA - PRATO CENTENARO - Q.RE FULVIO TESTI,9.208300382465003,45.52556196997059,acqua,,,,
39,PADOVA - TURRO - CRESCENZAGO,9.234323245266724,45.49789262398264,acqua,,,,
40,ADRIANO,9.241481976700175,45.51442363881801,acqua,,,,
41,PORTA MAGENTA,9.154363620252187,45.46605850293336,acqua,,,,
42,BRERA,9.184311200465991,45.47786271990747,acqua,,,,
43,VIGENTINO - Q.RE FATIMA,9.20443431385525,45.42788363401152,acqua,,,,
44,STAZIONE CENTRALE - PONTE SEVESO,9.211034080463564,45.4868558066749,acqua,,,,
45,XXII MARZO,9.215823110894204,45.46075001690022,acqua,,,,
46,BUENOS AIRES - PORTA VENEZIA - PORTA MONFORTE,9.212397921372244,45.478433866781046,acqua,,,,
47,RONCHETTO SUL NAVIGLIO - Q.RE LODOVICO IL MORO,9.149262198550126,45.44074876567301,acqua,,,,
48,PORTA GENOVA,9.165049412728097,45.45792776479927,acqua,,,,
49,COMASINA,9.161298901855496,45.52581198976813,acqua,,,,
50,GUASTALLA,9.197178711897315,45.4602905911029,acqua,,,,
51,LAMBRATE - ORTICA,9.241259305088937,45.47082628199475,acqua,,,,
0,Accursio,9.14615,45.491398,biblio,,,,
1,Affori,9.167394,45.516629,biblio,,,,
2,Baggio (sede provv. P.zza Stovani 3),9.091209,45.463178,biblio,,,,
3,Bibliobus,9.213189,45.460661,biblio,,,,
4,Biblioteca Crescenzago (sede provv. P.le Governo Provvisorio 9),9.225293,45.49825,biblio,,,,
5,Calvairate,9.22065,45.455762,biblio,,,,
6,Cassina Anna,9.177166,45.524983,biblio,,,,
7,Chiesa Rossa,9.174036,45.43043,biblio,,,,
8,Dergano Bovisa,9.168445,45.503666,biblio,,,,
9,Fra Cristoforo,9.171878,45.436191,biblio,,,,
10,Gallaratese,9.115198,45.496527,biblio,,,,
11,Harar,9.119611,45.473901,biblio,,,,
12,Lorenteggio,9.13441,45.447564,biblio,,,,
13,Niguarda,9.193187,45.51531,biblio,,,,
14,Oglio,9.21846,45.440521,biblio,,,,
15,Parco Sempione,9.175011,45.474486,biblio,,,,
16,Quarto Oggiaro,9.130483,45.515607,biblio,,,,
17,Sant'Ambrogio,9.16323,45.431247,biblio,,,,
18,Sicilia,9.152063,45.46506,biblio,,,,
19,Sormani,9.198145,45.4621641,biblio,,,,
20,Tibaldi,9.183084,45.444886,biblio,,,,
21,Valvassori Peroni,9.237198,45.479483,biblio,,,,
22,Venezia,9.20841,45.474884,biblio,,,,
23,Vigentina,9.196174,45.454212,biblio,,,,
24,Villapizzone,9.147549,45.499305,biblio,,,,
25,Zara,9.195927,45.497314,biblio,,,,
0,PIAZZA VENTICINQUE APRILE,9.1870305186785,45.4809876471498,ciclabili,,,,
1,VIA GIACOMO MEDICI DEL VASCELLO,9.24194464907128,45.4392715546864,ciclabili,,,,
2,VIA GIACOMO MEDICI DEL VASCELLO,9.23995617266987,45.4400199268851,ciclabili,,,,
3,VIA GIACOMO MEDICI DEL VASCELLO,9.23918713129895,45.442769857648,ciclabili,,,,
4,VIA GIACOMO MEDICI DEL VASCELLO,9.23998716620631,45.4400362237505,ciclabili,,,,
5,VIALE MARCHE,9.1976842242398,45.4948586428903,ciclabili,,,,
6,CORSO LODI,9.2048372915339,45.4507560352345,ciclabili,,,,
7,PIAZZA DEL DUOMO,9.19183109840918,45.464714436939,ciclabili,,,,
8,PIAZZA DEL DUOMO,9.1906929346428,45.464701891425,ciclabili,,,,
9,ALZAIA NAVIGLIO GRANDE,9.16836622631264,45.450564438617,ciclabili,,,,
10,VIA TOFANE,9.22174169870529,45.503530305379,ciclabili,,,,
11,CORSO BUENOS AIRES,9.20633204495567,45.4752866869338,ciclabili,,,,
12,CORSO VITTORIO EMANUELE II,9.19715932665247,45.4660557678451,ciclabili,,,,
13,CORSO VITTORIO EMANUELE II,9.19617140116171,45.4656455250109,ciclabili,,,,
14,CORSO VITTORIO EMANUELE II,9.19307276484075,45.4647511884658,ciclabili,,,,
15,PIAZZA DEL DUOMO,9.19252073063398,45.464689696635,ciclabili,,,,
16,CORSO VITTORIO EMANUELE II,9.19540905353714,45.4653966008668,ciclabili,,,,
17,PIAZZA DEL DUOMO,9.18926674461585,45.4646813514291,ciclabili,,,,
18,VIA DANTE,9.18494668739371,45.4661921276768,ciclabili,,,,
19,VIA DEI MERCANTI,9.18706532322143,45.4652405162953,ciclabili,,,,
20,VIA DEI MERCANTI,9.18837790696209,45.4647324159525,ciclabili,,,,
21,VIA DEI MERCANTI,9.1874667218379,45.4650851772702,ciclabili,,,,
22,VIA DEI MERCANTI,9.18788568247345,45.4649229663609,ciclabili,,,,
23,CORSO DI PORTA TICINESE,9.18105434071254,45.4580790854532,ciclabili,,,,
24,VIA DANTE,9.18428672910692,45.4666557542628,ciclabili,,,,
25,VIA DANTE,9.18325240460644,45.4674501140178,ciclabili,,,,
26,VIA BRERA,9.18762168114415,45.4714448946268,ciclabili,,,,
27,VIA BRERA,9.18741533416874,45.4727508499316,ciclabili,,,,
28,VIA SANTA CROCE,9.18244234125301,45.4542663082514,ciclabili,,,,
29,PIAZZA SANT'EUSTORGIO,9.18070183063067,45.4533755764977,ciclabili,,,,
30,VIA LAZZARO SPALLANZANI,9.20742270859586,45.4759841231161,ciclabili,,,,
31,CORSO VITTORIO EMANUELE II,9.19673585164088,45.4658532448828,ciclabili,,,,
32,VIALE ENRICO FERMI,9.17937576887408,45.5140990626971,ciclabili,,,,
33,VIALE MAR JONIO,9.13734389470754,45.473881220479,ciclabili,,,,
34,VIALE MAR JONIO,9.13778593799623,45.4738646527422,ciclabili,,,,
35,PIAZZALE SELINUNTE,9.13743108379351,45.4721133140096,ciclabili,,,,
36,VIA GIOVANNI TRECCANI DEGLI ALFIERI,9.18603544287362,45.4313917997573,ciclabili,,,,
37,VIA ANGELO SALMOIRAGHI,9.14075729925709,45.4841353925077,ciclabili,,,,
38,VIA BRERA,9.18747330242291,45.4724667643332,ciclabili,,,,
39,CORSO VITTORIO EMANUELE II,9.19477357487949,45.4652135239961,ciclabili,,,,
40,VIA MONTE DI PIETA',9.18898122461619,45.4682294584147,ciclabili,,,,
41,PIAZZALE FERRARA,9.2200509432952,45.4381267742179,ciclabili,,,,
42,VIA COMACCHIO,9.21865792448432,45.4374886092882,ciclabili,,,,
43,PIAZZALE FERRARA,9.21953482593094,45.4378954396167,ciclabili,,,,
44,VIA GIORGIO STEPHENSON,9.12736089361588,45.5110753293324,ciclabili,,,,
45,CORSO VITTORIO EMANUELE II,9.19368476809646,45.4649180232314,ciclabili,,,,
46,VIALE MAR JONIO,9.13755997275323,45.4739182341081,ciclabili,,,,
47,PIAZZA SAN BABILA,9.19751594434812,45.4664359265851,ciclabili,,,,
48,CORSO VITTORIO EMANUELE II,9.19427268607351,45.4650729693375,ciclabili,,,,
49,CORSO LODI,9.20792624497469,45.4488491510474,ciclabili,,,,
50,CORSO LODI,9.20790385864671,45.4484880146759,ciclabili,,,,
51,PARCO DEI FONTANILI,9.09919443201085,45.4505758035685,ciclabili,,,,
52,PIAZZA ANTONIO GRAMSCI,9.16842641166795,45.481651523907,ciclabili,,,,
53,VIA LUIGI CANONICA,9.16934597537188,45.4812544386079,ciclabili,,,,
54,VIA GUIDO RENI,9.22590149891856,45.4706754055329,ciclabili,,,,
55,PARCO DI TRENNO,9.10739627768282,45.4825163329549,ciclabili,,,,
56,PARCO DI TRENNO,9.10705750911123,45.4804524110979,ciclabili,,,,
57,PARCO DI TRENNO,9.10726573506006,45.4813807269966,ciclabili,,,,
58,PARCO DI TRENNO,9.10720487856413,45.4848683680382,ciclabili,,,,
59,PARCO DI TRENNO,9.10657459500134,45.4900318679965,ciclabili,,,,
60,PARCO DI TRENNO,9.10684546477946,45.491357741705,ciclabili,,,,
61,VIA PAOLO SARPI,9.17174988661423,45.4810764326918,ciclabili,,,,
62,VIA PAOLO SARPI,9.17388862492143,45.4812134166742,ciclabili,,,,
63,VIA PAOLO SARPI,9.17596068098894,45.4813830452488,ciclabili,,,,
64,VIA PAOLO SARPI,9.17799054638236,45.4815685847602,ciclabili,,,,
65,VIA PAOLO SARPI,9.18017699091961,45.4817545936863,ciclabili,,,,
66,PARCO DELLE CAVE,9.09672094044043,45.4641177657974,ciclabili,,,,
67,PARCO DELLE CAVE,9.10042816875452,45.4698523507048,ciclabili,,,,
68,PARCO DELLE CAVE,9.09759097813148,45.4691788171486,ciclabili,,,,
69,PARCO DELLE CAVE,9.09566236371868,45.4669581581178,ciclabili,,,,
70,PARCO DI TRENNO,9.10741772780419,45.4875271650342,ciclabili,,,,
71,PARCO DELLE CAVE,9.0990060077595,45.4734031842664,ciclabili,,,,
72,VIA SANTA SOFIA,9.18924799396137,45.4567232458329,ciclabili,,,,
73,VIA MONTEVIDEO,9.16509919979999,45.4577490496107,ciclabili,,,,
74,VIA SANTA SOFIA,9.19129748713747,45.4572808286063,ciclabili,,,,
75,PIAZZA GIOVANNI ANTONIO BAZZI,9.162235129061,45.4568375327141,ciclabili,,,,
76,VIA VALPARAISO,9.1637389272802,45.4573163540467,ciclabili,,,,
77,VIA COLA DI RIENZO,9.15816451774045,45.455542685903,ciclabili,,,,
78,VIA TORTONA,9.16014010755117,45.4511579324285,ciclabili,,,,
79,VIA PAOLO DA CANNOBIO,9.18905100096989,45.4604259742789,ciclabili,,,,
80,VIA LUIGI MENGONI,9.10808597344761,45.4524396580296,ciclabili,,,,
81,VIA PAVIA,9.17826411877702,45.4474775331151,ciclabili,,,,
82,VIA PAVIA,9.17824178415395,45.4473857382243,ciclabili,,,,
83,VIA VIPITENO,9.23814356454623,45.5115576112777,ciclabili,,,,
84,PIAZZA DELLA REPUBBLICA,9.19885144754128,45.480435821495,ciclabili,,,,
85,PIAZZA DELLA REPUBBLICA,9.19874004168559,45.4803005213753,ciclabili,,,,
86,VIA SANTA SOFIA,9.18903579571778,45.4564423683061,ciclabili,,,,
87,VIA GIOSUE' CARDUCCI,9.17411628740702,45.4633738410306,ciclabili,,,,
88,VIA VINCENZO FOPPA,9.1645233341148,45.459115065248,ciclabili,,,,
89,VIALE MONTE SANTO,9.19403474906425,45.4795923610758,ciclabili,,,,
90,NVPR STRADA DI COLLEGAMENTO TRA VIA OLGETTINA E COLOGNO M.,9.26326022870284,45.5100570993758,ciclabili,,,,
91,PIAZZA DELLA RESISTENZA PARTIGIANA,9.17829128626775,45.459038489011,ciclabili,,,,
92,VIA BISCEGLIE,9.12015307013967,45.4479567447459,ciclabili,,,,
93,VIA BISCEGLIE,9.11969593135161,45.4486346268882,ciclabili,,,,
94,VIA BISCEGLIE,9.1208540492546,45.4471629864398,ciclabili,,,,
95,VIA BISCEGLIE,9.12055829721299,45.4473064155619,ciclabili,,,,
96,VIA BISCEGLIE,9.12038765658648,45.4472529360374,ciclabili,,,,
97,PIAZZALE SUSA,9.22393339118184,45.4681120847428,ciclabili,,,,
98,PIAZZALE SUSA,9.22366186709035,45.4692200429433,ciclabili,,,,
99,VIALE PAPINIANO,9.16944435192471,45.4583343123719,ciclabili,,,,
100,VIALE CAMAPANIA,9.22369898505872,45.4673328033977,ciclabili,,,,
101,VIA MARIO PAGANO,9.16904999900777,45.4733742923876,ciclabili,,,,
102,VIA BRONI,9.20372661184007,45.4386289214864,ciclabili,,,,
103,VIA CESARE CORRENTI,9.17829260960024,45.4591148030787,ciclabili,,,,
104,VIA CESARE CORRENTI,9.17818679041392,45.4591632068295,ciclabili,,,,
105,VIA CAMINADELLA,9.17793496809657,45.4593840107203,ciclabili,,,,
106,PIAZZA DELLA RESISTENZA PARTIGIANA,9.17804885696807,45.4588757954998,ciclabili,,,,
107,PIAZZA DELLA RESISTENZA PARTIGIANA,9.17820459751572,45.4589938972707,ciclabili,,,,
108,VIA OLGETTINA,9.26426682203557,45.5119781128181,ciclabili,,,,
109,VIA GIUSEPPE VERDI,9.18926764312751,45.4680236398037,ciclabili,,,,
110,PIAZZA VENTIQUATTRO MAGGIO,9.17922278608902,45.4523349422807,ciclabili,,,,
111,PIAZZA RISORGIMENTO,9.21121585355436,45.4681080877203,ciclabili,,,,
112,PIAZZA RISORGIMENTO,9.21024584414457,45.4678755348283,ciclabili,,,,
113,VIA EDMONDO DE AMICIS,9.17561976499855,45.4599929150284,ciclabili,,,,
114,VIA MOLINO DELLE ARMI,9.18582563639955,45.4562450281993,ciclabili,,,,
115,VIA MOLINO DELLE ARMI,9.18479400762689,45.4564220743995,ciclabili,,,,
116,VIA GIUSEPPE DEZZA,9.1640436126343,45.4590797113952,ciclabili,,,,
117,VIA EDMONDO DE AMICIS,9.17510373760182,45.4603227421357,ciclabili,,,,
118,VIA TIVOLI,9.18344196945383,45.4718855362404,ciclabili,,,,
119,VIA ANCONA,9.18642493652939,45.4738003562892,ciclabili,,,,
120,LARGO CAIROLI,9.1826732399029,45.4687444267194,ciclabili,,,,
121,LARGO CAIROLI,9.18289037234467,45.4688209169021,ciclabili,,,,
122,FORO BUONAPARTE,9.18283024083959,45.4717583864617,ciclabili,,,,
123,PIAZZA CASTELLO,9.18124937517366,45.4712728132696,ciclabili,,,,
124,VIALE GADIO,9.17981248807479,45.472807113523,ciclabili,,,,
125,PIAZZALE CIMITERO MONUMENTALE,9.17793850242816,45.4844675604967,ciclabili,,,,
126,PIAZZALE CIMITERO MONUMENTALE,9.17770364769461,45.4840992758461,ciclabili,,,,
127,PIAZZALE CIMITERO MONUMENTALE,9.17787466952188,45.4843098319615,ciclabili,,,,
128,VIA FRANCESCO SFORZA,9.19397800070462,45.4581274968244,ciclabili,,,,
129,VIA TOFANE,9.2168509570229,45.5002200348104,ciclabili,,,,
130,VIALE FAMAGOSTA,9.16848757747457,45.4378049427845,ciclabili,,,,
131,PIAZZALE CIMITERO MONUMENTALE,9.18072949894895,45.4850553213176,ciclabili,,,,
132,VIA EDMONDO DE AMICIS,9.17459880425698,45.4606669470242,ciclabili,,,,
133,PIAZZALE CIMITERO MONUMENTALE,9.17891933768448,45.4844288075008,ciclabili,,,,
134,VIA EDMONDO DE AMICIS,9.17921147497503,45.4580530981248,ciclabili,,,,
135,VIA MOLINO DELLE ARMI,9.18417031773876,45.4565585894984,ciclabili,,,,
136,CORSO PLEBISCITI,9.22250234519253,45.4679981854393,ciclabili,,,,
137,CORSO PLEBISCITI,9.21861636982005,45.467991139991,ciclabili,,,,
138,VIA VINCENZO FOPPA,9.16466615821991,45.4589316586353,ciclabili,,,,
139,VIA GIUSEPPE DEZZA,9.16334440388061,45.4591554027613,ciclabili,,,,
140,VIA GIUSEPPE DEZZA,9.16357690134915,45.4593746143945,ciclabili,,,,
141,VIA GIUSEPPE DEZZA,9.16433269644729,45.4591152490981,ciclabili,,,,
142,VIA GIOSUE' CARDUCCI,9.17357171471671,45.4623761399404,ciclabili,,,,
143,VIA EDMONDO DE AMICIS,9.1734797542705,45.4614589847714,ciclabili,,,,
144,VIA EDMONDO DE AMICIS,9.17638862552964,45.4595280479172,ciclabili,,,,
145,PIAZZALE CIMITERO MONUMENTALE,9.17996131737547,45.4845987540947,ciclabili,,,,
146,VIA VINCENZO FOPPA,9.16467729180302,45.4590805499462,ciclabili,,,,
147,VIALE GIOVANNI MILTON,9.17095966854787,45.4733366697481,ciclabili,,,,
148,PIAZZALE LODI,9.21060625826512,45.4471209714276,ciclabili,,,,
149,VIA ARCANGELO CORELLI,9.26432267144782,45.4703760048601,ciclabili,,,,
150,VIA ARCANGELO CORELLI,9.25893936143824,45.4713498418597,ciclabili,,,,
151,VIA ARCANGELO CORELLI,9.26184537721705,45.4699548060393,ciclabili,,,,
152,VIA ARCANGELO CORELLI,9.25166720055227,45.4710188345555,ciclabili,,,,
153,VIA ARCANGELO CORELLI,9.25029000756385,45.4711192675611,ciclabili,,,,
154,VIA ARCANGELO CORELLI,9.25211344903436,45.4710374234372,ciclabili,,,,
155,VIA VARESINA,9.1483855196412,45.4944456434722,ciclabili,,,,
156,VIA ALFREDO PANZINI,9.1604599161496,45.4710200156567,ciclabili,,,,
157,VIA DOMENICO CIMAROSA,9.15841208916741,45.4646483631847,ciclabili,,,,
158,VIA PALMANOVA,9.24051520276103,45.499239509248,ciclabili,,,,
159,VIA PALMANOVA,9.24110591967606,45.499666846708,ciclabili,,,,
160,VIA WERNER VON SIEMENS,9.23771451370954,45.5103784666429,ciclabili,,,,
161,VIALE FRANCESCO RESTELLI,9.19871881219394,45.4918349733185,ciclabili,,,,
162,VIA SPOLETO,9.2163822510987,45.4954069743133,ciclabili,,,,
163,VIA SPOLETO,9.21698136173813,45.4951068462574,ciclabili,,,,
164,VIA GIULIO E CORRADO VENINI,9.21726835534876,45.4950702282846,ciclabili,,,,
165,VIA MARTIRI OSCURI,9.21729685207588,45.4949535447372,ciclabili,,,,
166,PIAZZA RISORGIMENTO,9.2105150410305,45.4679016601634,ciclabili,,,,
167,VIA CADUTI DI MARCINELLE,9.26340907150595,45.4827273922235,ciclabili,,,,
168,VIA CADUTI DI MARCINELLE,9.26472448524853,45.4806649136377,ciclabili,,,,
169,VIA VOLTURNO,9.19109849619683,45.4882309557339,ciclabili,,,,
170,VIA MELCHIORRE GIOIA,9.1913118268373,45.4811815511396,ciclabili,,,,
171,PIAZZA RISORGIMENTO,9.21026511532122,45.4682755602649,ciclabili,,,,
172,PIAZZALE GIULIO CESARE,9.15553809672656,45.4733892611549,ciclabili,,,,
173,VIA MARTIRI OSCURI,9.21721815386185,45.4949667796011,ciclabili,,,,
174,VIA MONTE ROSA,9.14991036624474,45.4746238093322,ciclabili,,,,
175,VIA MONTE ROSA,9.15024654211371,45.4744042159799,ciclabili,,,,
176,PIAZZALE DELLE MILIZIE,9.15740980450967,45.449030321629,ciclabili,,,,
177,VIALE ENRICO FERMI,9.18355054750283,45.5051796384003,ciclabili,,,,
178,VIA ETTORE MAJORANA,9.18471425698435,45.5130157902321,ciclabili,,,,
179,VIA MONTE ROSA,9.14611187891366,45.4775006209135,ciclabili,,,,
180,CORSO LODI,9.22381090262495,45.4400439485088,ciclabili,,,,
181,VIA PALMANOVA,9.24331085075672,45.501296991689,ciclabili,,,,
182,VIA SANTA SOFIA,9.19152143858384,45.4571739172176,ciclabili,,,,
183,PIAZZALE FERDINANDO MARTINI,9.22148128526646,45.4565330476079,ciclabili,,,,
184,PIAZZALE FERDINANDO MARTINI,9.22011889660191,45.4569719670744,ciclabili,,,,
185,VIA ETTORE MAJORANA,9.17975950549569,45.5141714378521,ciclabili,,,,
186,VIA NOVARA,9.10291774745266,45.4801980491369,ciclabili,,,,
187,VIALE MARCHE,9.19744205352707,45.4949243180557,ciclabili,,,,
188,PIAZZA DELLA REPUBBLICA,9.19869517677999,45.4798324983839,ciclabili,,,,
189,PARCO NORD,9.17951744019692,45.5148260057412,ciclabili,,,,
190,VIA ALBERTO DA GIUSSANO,9.16431397875809,45.4681860443575,ciclabili,,,,
191,CORSO INDIPENDENZA,9.21401220815825,45.4677571680527,ciclabili,,,,
192,ALZAIA NAVIGLIO GRANDE,9.12971705371904,45.4410814729594,ciclabili,,,,
193,VIALE DELL'AVIAZIONE,9.2550837980112,45.460107332516,ciclabili,,,,
194,VIALE CASSALA,9.15880516026754,45.4465957438324,ciclabili,,,,
195,VIA BENIGNO CRESPI,9.18610410466326,45.4986404249796,ciclabili,,,,
196,VIA EMILIO DE MARCHI,9.21196520122089,45.505047340334,ciclabili,,,,
197,VIALE CASSALA,9.1581983988702,45.447083471027,ciclabili,,,,
198,VIA MONTE ROSA,9.14901141564614,45.4751050369862,ciclabili,,,,
199,VIA MONTE ROSA,9.14923974669586,45.4748977087049,ciclabili,,,,
200,VIA MONTE ROSA,9.14950662265877,45.4747269966318,ciclabili,,,,
201,VIA MONTE ROSA,9.14790992193418,45.4759298489443,ciclabili,,,,
202,VIA GIUSEPPE DEZZA,9.16043028034953,45.4608117634985,ciclabili,,,,
203,VIA CUSAGO,9.05747339133566,45.4544902528074,ciclabili,,,,
204,PIAZZA GIOVANNI AMENDOLA,9.15176982786171,45.4737176753248,ciclabili,,,,
205,VIA UMBERTO VISCONTI DI MODRONE,9.19933564775592,45.4636954779936,ciclabili,,,,
206,VIA BISCEGLIE,9.11918845907703,45.4495870508816,ciclabili,,,,
207,VIALE ENRICO FERMI,9.18236326530655,45.5065747178811,ciclabili,,,,
208,VIA ALBERTO DA GIUSSANO,9.16342256230174,45.4689092317848,ciclabili,,,,
209,VIA ALBERTO DA GIUSSANO,9.16500999867673,45.4677629554488,ciclabili,,,,
210,VIALE ENRICO FERMI,9.18106256562539,45.5079989892789,ciclabili,,,,
211,PIAZZA DELLA REPUBBLICA,9.19763537818967,45.4786839983797,ciclabili,,,,
212,VIA VITTOR PISANI,9.20200747868007,45.483381371142,ciclabili,,,,
213,PIAZZA DUCA D'AOSTA,9.20277536898526,45.4838705003787,ciclabili,,,,
214,PIAZZA DUCA D'AOSTA,9.20323999907823,45.4839314260696,ciclabili,,,,
215,PIAZZA DUCA D'AOSTA,9.2020344537879,45.4845819883753,ciclabili,,,,
216,VIALE ENRICO FORLANINI,9.25539113893238,45.4617658802019,ciclabili,,,,
217,PIAZZA DUCA D'AOSTA,9.20211264096477,45.484201782904,ciclabili,,,,
218,VIALE FRANCESCO RESTELLI,9.19928480502259,45.4924432245189,ciclabili,,,,
219,VIALE ARGONNE,9.23253434804846,45.4683360811457,ciclabili,,,,
220,CORSO PLEBISCITI,9.21974750273239,45.4680027943854,ciclabili,,,,
221,VIA MELCHIORRE GIOIA,9.19580090725907,45.4847927444401,ciclabili,,,,
222,VIA VENTI SETTEMBRE,9.17047975099643,45.4703312082687,ciclabili,,,,
223,VIA VENTI SETTEMBRE,9.17069022234178,45.4704558379303,ciclabili,,,,
224,PIAZZA DUCA D'AOSTA,9.20202088652452,45.4843582027063,ciclabili,,,,
225,PIAZZA DUCA D'AOSTA,9.20258635364642,45.4838771238426,ciclabili,,,,
226,BASTIONI DI PORTA VENEZIA,9.20375598224278,45.4746071450384,ciclabili,,,,
227,PIAZZA GORLA,9.22197939119203,45.5037075682447,ciclabili,,,,
228,PONTE VIA BERTELLI - VIA LISCATE,9.23211904374869,45.5042274718869,ciclabili,,,,
229,VIALE TURCHIA,9.25977826571265,45.4967852049562,ciclabili,,,,
230,CAVALCAVIA DON LORENZO MILANI,9.14671906492308,45.4443302827343,ciclabili,,,,
231,VIA EDOARDO CHINOTTO,9.12775281236949,45.4639669728989,ciclabili,,,,
232,CORSO PLEBISCITI,9.22201432365468,45.4680291555182,ciclabili,,,,
233,VIA GALLARATE,9.09844032467031,45.5065878263417,ciclabili,,,,
234,VIA FERDINANDO MARESCALCHI,9.23485549833786,45.4689639509094,ciclabili,,,,
235,VIA MECENATE,9.24575529026516,45.4543838771556,ciclabili,,,,
236,VIA MECENATE,9.24914528175325,45.4518920974523,ciclabili,,,,
237,PIAZZA CARBONARI,9.20001651706567,45.4948854756376,ciclabili,,,,
238,VIA GIORGIO PALLAVICINO,9.16222709138387,45.4709713356185,ciclabili,,,,
239,VIA LIVIO CAMBI,9.12558703147624,45.4898873728533,ciclabili,,,,
240,VIA EDOARDO CHINOTTO,9.12754695287011,45.4642012740507,ciclabili,,,,
241,VIA CUSAGO,9.05900087792542,45.4549581263935,ciclabili,,,,
242,VIA PIETRO GIORDANI,9.12190446199147,45.4455689713273,ciclabili,,,,
243,VIA LAURA CICERI VISCONTI,9.22096732056884,45.454217035746,ciclabili,,,,
244,AREA VERDE DI VIA FILIPPO PALIZZI,9.14187526401078,45.5036853495776,ciclabili,,,,
245,VIA MELCHIORRE GIOIA,9.19788902996529,45.4866594254869,ciclabili,,,,
246,VIA SAN MARCO,9.18903850802694,45.4785102623994,ciclabili,,,,
247,VIALE ENRICO FERMI,9.17984296759262,45.510835417369,ciclabili,,,,
248,VIA MELCHIORRE GIOIA,9.20061696550786,45.4893755124489,ciclabili,,,,
249,VIA MELCHIORRE GIOIA,9.20366492537282,45.4915730824542,ciclabili,,,,
250,VIA MELCHIORRE GIOIA,9.2035056709794,45.4918784495812,ciclabili,,,,
251,VIA MELCHIORRE GIOIA,9.20470452896236,45.4925396047862,ciclabili,,,,
252,VIA MELCHIORRE GIOIA,9.19037495205369,45.4805179791005,ciclabili,,,,
253,VIA MELCHIORRE GIOIA,9.20742202403142,45.4952677220183,ciclabili,,,,
254,VIA MELCHIORRE GIOIA,9.19062114132837,45.4806777695914,ciclabili,,,,
255,VIA BISCEGLIE,9.11566219618991,45.4536426443933,ciclabili,,,,
256,CORSO LODI,9.21684525582946,45.4435663298476,ciclabili,,,,
257,VIA MELCHIORRE GIOIA,9.19534258464809,45.4847400829094,ciclabili,,,,
258,VIA MELCHIORRE GIOIA,9.19175238493766,45.4815423005895,ciclabili,,,,
259,PIAZZALE GIULIO CESARE,9.15447251043815,45.4734386198033,ciclabili,,,,
260,VIA MELCHIORRE GIOIA,9.20799884194669,45.4961074372501,ciclabili,,,,
261,VIA PIETRO GIORDANI,9.1258412189075,45.438024167258,ciclabili,,,,
262,VIA PIETRO GIORDANI,9.12396703307954,45.4425204962181,ciclabili,,,,
263,VIA LAMPUGNANO,9.10679158714087,45.4924911753528,ciclabili,,,,
264,VIA LAMPUGNANO,9.11019460242115,45.4917162087574,ciclabili,,,,
265,VIA LAURA CICERI VISCONTI,9.22028720714866,45.4536046196747,ciclabili,,,,
266,VIA LAURA CICERI VISCONTI,9.22097857482234,45.4536074934725,ciclabili,,,,
267,PIAZZA INSUBRIA,9.22148883216557,45.4524860969103,ciclabili,,,,
268,VIA LAMPUGNANO,9.10648019552387,45.4923980381279,ciclabili,,,,
269,CORSO LODI,9.20966315271552,45.4476367431033,ciclabili,,,,
270,CORSO LODI,9.22147686016816,45.4413189823325,ciclabili,,,,
271,PARCO QUARTO CAGNINO,9.10578193105585,45.4718832457867,ciclabili,,,,
272,VIA PIETRO GIORDANI,9.12191143969978,45.4455237512658,ciclabili,,,,
273,VIA LAMPUGNANO,9.10722074941706,45.4925869741129,ciclabili,,,,
274,VIA POMPEO MARCHESI,9.10696235997894,45.4713750016954,ciclabili,,,,
275,VIA FERDINANDO MARESCALCHI,9.23568462237958,45.4692530646085,ciclabili,,,,
276,VIALE ENRICO MARTINI,9.22395154961843,45.4388769400522,ciclabili,,,,
277,PARCO QUARTO CAGNINO,9.10760385867753,45.4696772738012,ciclabili,,,,
278,PARCO QUARTO CAGNINO,9.10710550986219,45.4706547148114,ciclabili,,,,
279,VIA FERDINANDO MARESCALCHI,9.23758658122461,45.469437496434,ciclabili,,,,
280,VIA MECENATE,9.24327183531457,45.4562131351886,ciclabili,,,,
281,VIA MECENATE,9.25395010150795,45.4483720280333,ciclabili,,,,
282,VIA MECENATE,9.24988243501945,45.451351254634,ciclabili,,,,
283,PIAZZALE DELLE MILIZIE,9.15694940967115,45.4492008667108,ciclabili,,,,
284,STRADA DEL MOLINETTO DI LORENTEGGIO,9.11805287944656,45.4399542809945,ciclabili,,,,
285,VIA LAURA CICERI VISCONTI,9.22092005229316,45.4558868195159,ciclabili,,,,
286,VIA IPPOLITO NIEVO,9.15967671150916,45.4717270156551,ciclabili,,,,
287,VIA MONTE ROSA,9.15078179577664,45.4739921370677,ciclabili,,,,
288,VIA CARLA MILLY MIGNONE,9.1066562980885,45.4719587774661,ciclabili,,,,
289,VIALE MOLISE,9.22375913497312,45.4596735676471,ciclabili,,,,
290,VIALE MOLISE,9.22411669600823,45.4596773056063,ciclabili,,,,
291,VIALE MOLISE,9.22376845326667,45.4581021123598,ciclabili,,,,
292,VIA MONTE ROSA,9.14996343048397,45.4743310228994,ciclabili,,,,
293,VIA GIOVANNI BATTISTA MORGAGNI,9.21345599824665,45.4795322876107,ciclabili,,,,
294,VIA GAETANO MORETTI,9.13220795015116,45.4853280510197,ciclabili,,,,
295,VIA ANTONIO MOSCA,9.080710734872,45.4567227026853,ciclabili,,,,
296,VIA MONTE ROSA,9.14492958888381,45.4781692939707,ciclabili,,,,
297,VIA MONTE ROSA,9.14506063478404,45.4783307195909,ciclabili,,,,
298,VIA IPPOLITO NIEVO,9.15987714117612,45.4719589875263,ciclabili,,,,
299,ALZAIA NAVIGLIO GRANDE,9.16827348276632,45.4504791056329,ciclabili,,,,
300,SOTTOPASSO VIA NEGROTTO - VIA PACUVIO,9.14826445285955,45.5033778905278,ciclabili,,,,
301,VIA MECENATE,9.25166870022835,45.4500470176301,ciclabili,,,,
302,VIA OLGETTINA,9.26667421949423,45.5094594674433,ciclabili,,,,
303,VIALE OMERO,9.22420268362927,45.4359013822912,ciclabili,,,,
304,VIA PADOVA,9.2203979339668,45.4888431333767,ciclabili,,,,
305,VIA PADOVA,9.21745245067165,45.4865920046698,ciclabili,,,,
306,VIA PADOVA,9.22331994935243,45.4911531841506,ciclabili,,,,
307,VIA PADOVA,9.25089013860159,45.5105660156169,ciclabili,,,,
308,VIA FILIPPO PALIZZI,9.13997710151368,45.5069942283058,ciclabili,,,,
309,VIA PALMANOVA,9.25390375807681,45.5100205667139,ciclabili,,,,
310,VIA PALMANOVA,9.24896301996036,45.5055751960048,ciclabili,,,,
311,VIA PALMANOVA,9.25503691489988,45.5113484418796,ciclabili,,,,
312,VIA ALBERTO DA GIUSSANO,9.16170192395963,45.4701395082158,ciclabili,,,,
313,VIA ALFREDO PANZINI,9.16004072372124,45.4713449798795,ciclabili,,,,
314,VIA PALMANOVA,9.25305889987795,45.509378726686,ciclabili,,,,
315,VIA MARIO BORSA,9.09281733294429,45.5061397770327,ciclabili,,,,
316,VIA MELCHIORRE GIOIA,9.18999482551652,45.4799733130411,ciclabili,,,,
317,VIA SAN MARCO,9.18784535589878,45.473841690142,ciclabili,,,,
318,VIA SAN MARCO,9.18806607838906,45.4746261525695,ciclabili,,,,
319,VIA SAN MARCO,9.18984857487647,45.4797787303855,ciclabili,,,,
320,VIA SAN MARCO,9.18868897223242,45.4777030116517,ciclabili,,,,
321,VIALE SARCA,9.20609864130847,45.5107158162136,ciclabili,,,,
322,VIA SEGNANINO,9.21122381864506,45.5100108736234,ciclabili,,,,
323,VIA VALENTINO MAZZOLA,9.22806894318683,45.4598277382536,ciclabili,,,,
324,VIALE CASSIODORO,9.15945115537022,45.4729954248774,ciclabili,,,,
325,VIA ROBERTO TREMELLONI,9.22981472481223,45.5138115209292,ciclabili,,,,
326,VIA GAETANO MORETTI,9.13419408057759,45.4848361259099,ciclabili,,,,
327,VIA ANTONIO RAIMONDI,9.1408279080234,45.5027613015117,ciclabili,,,,
328,VIA OLONA,9.17136386574188,45.4600905507724,ciclabili,,,,
329,VIA TOFANE,9.21635223194567,45.499788479723,ciclabili,,,,
330,VIA MELCHIORRE GIOIA,9.20447961964711,45.49233041934,ciclabili,,,,
331,VIA ETTORE MAJORANA,9.18779018728507,45.5122571649964,ciclabili,,,,
332,VIA TUCIDIDE,9.24572328802358,45.4707135927301,ciclabili,,,,
333,VIA GUIDO VENOSTA,9.20822797904085,45.5095428844846,ciclabili,,,,
334,VIA VALSESIA,9.09842338455499,45.4519196117342,ciclabili,,,,
335,VIA MELCHIORRE GIOIA,9.19833070815518,45.4870645093711,ciclabili,,,,
336,VIA LUIGI BERTELLI,9.22491888512388,45.5039219647709,ciclabili,,,,
337,VIA LUIGI BERTELLI,9.2239257058904,45.5039734441094,ciclabili,,,,
338,VIA MELCHIORRE GIOIA,9.19819641404356,45.4869297246898,ciclabili,,,,
339,VIA MELCHIORRE GIOIA,9.19759223320943,45.4868239449597,ciclabili,,,,
340,VIA WERNER VON SIEMENS,9.2406673964025,45.5109701774526,ciclabili,,,,
341,VIA GIOSUE' CARDUCCI,9.17494822567865,45.4648872198424,ciclabili,,,,
342,VIALE ENRICO FORLANINI,9.25768444207255,45.4619663873155,ciclabili,,,,
343,VIA MELCHIORRE GIOIA,9.20164955479503,45.4898649253575,ciclabili,,,,
344,VIA MELCHIORRE GIOIA,9.20134557342927,45.4899879468197,ciclabili,,,,
345,VIA MELCHIORRE GIOIA,9.19792802810536,45.4871003528973,ciclabili,,,,
346,PIAZZALE CARLO MACIACHINI,9.18410210509349,45.4975606142353,ciclabili,,,,
347,VIA MELCHIORRE GIOIA,9.20103278683918,45.4897121113807,ciclabili,,,,
348,VIA MELCHIORRE GIOIA,9.20440185005261,45.4922107507787,ciclabili,,,,
349,VIA MELCHIORRE GIOIA,9.20421367906191,45.4924566165137,ciclabili,,,,
350,VIA PADOVA,9.21856608112922,45.487459957523,ciclabili,,,,
351,VIA MELCHIORRE GIOIA,9.20604300774984,45.4940008227622,ciclabili,,,,
352,VIA MELCHIORRE GIOIA,9.20130121244314,45.4895697839692,ciclabili,,,,
353,VIA MELCHIORRE GIOIA,9.20420056005513,45.4920274046347,ciclabili,,,,
354,VIA MELCHIORRE GIOIA,9.20388316036688,45.4921823374388,ciclabili,,,,
355,VIA MELCHIORRE GIOIA,9.20628429279567,45.4942392914594,ciclabili,,,,
356,VIA SAN MARCO,9.18979396198247,45.4796979021564,ciclabili,,,,
357,CORSO LODI,9.2238078175113,45.4399750796779,ciclabili,,,,
358,VIA MELCHIORRE GIOIA,9.20709006592434,45.4946469411167,ciclabili,,,,
359,VIA MELCHIORRE GIOIA,9.20763528175823,45.4952776413701,ciclabili,,,,
360,VIA SAN MARCO,9.18891311108087,45.4784377151372,ciclabili,,,,
361,PIAZZALE CARLO MACIACHINI,9.18403166159306,45.4973711146033,ciclabili,,,,
362,VIA SAN MARCO,9.18837210943143,45.4761665520345,ciclabili,,,,
363,VIA SAN MARCO,9.1884460180871,45.4769876742152,ciclabili,,,,
364,VIA SAN MARCO,9.18830693330175,45.4753484929039,ciclabili,,,,
365,VIA SAN MARCO,9.188885261908,45.4783889683374,ciclabili,,,,
366,VIA SAN MARCO,9.18785573001594,45.4739461342529,ciclabili,,,,
367,VIA ANTONIO MOSCA,9.08143119564846,45.4570882255387,ciclabili,,,,
368,PIAZZALE CARLO MACIACHINI,9.18614508196561,45.4982161668815,ciclabili,,,,
369,VIA ETTORE MAJORANA,9.17966624707919,45.513912599541,ciclabili,,,,
370,VIA ETTORE MAJORANA,9.19086084374296,45.512004663155,ciclabili,,,,
371,VIA LUIGI BERTELLI,9.22690786133466,45.5034602190286,ciclabili,,,,
372,PIAZZALE CARLO MACIACHINI,9.18699137131161,45.4982699485892,ciclabili,,,,
373,PIAZZALE CARLO MACIACHINI,9.18658197980293,45.4982105555338,ciclabili,,,,
374,PIAZZALE CARLO MACIACHINI,9.1868667564182,45.4982292181595,ciclabili,,,,
375,PIAZZALE CARLO MACIACHINI,9.18626245044457,45.4981839438551,ciclabili,,,,
376,VIA BENIGNO CRESPI,9.18582981771167,45.4995643622342,ciclabili,,,,
377,PIAZZALE CARLO MACIACHINI,9.18504564556945,45.497604044695,ciclabili,,,,
378,PIAZZALE CARLO MACIACHINI,9.18433117377032,45.4975639819198,ciclabili,,,,
379,PIAZZALE CARLO MACIACHINI,9.18406491906396,45.4974831682041,ciclabili,,,,
380,PIAZZALE CARLO MACIACHINI,9.18398448857576,45.4972643349303,ciclabili,,,,
381,VIA BENIGNO CRESPI,9.18598057082209,45.4990098411843,ciclabili,,,,
382,VIA BENIGNO CRESPI,9.1856652345253,45.5001379388146,ciclabili,,,,
383,VIA BENIGNO CRESPI,9.18482786535756,45.5034954553087,ciclabili,,,,
384,VIA ETTORE MAJORANA,9.18474334644776,45.5133484332672,ciclabili,,,,
385,VIA GIOSUE' CARDUCCI,9.17474235409373,45.4645164222283,ciclabili,,,,
386,PIAZZA CARBONARI,9.20086818601223,45.494762889207,ciclabili,,,,
387,VIALE ENRICO FERMI,9.18441719338727,45.504282730653,ciclabili,,,,
388,VIA ETTORE MAJORANA,9.19094571129224,45.5125761603307,ciclabili,,,,
389,VIA ETTORE MAJORANA,9.18439634855055,45.5130930964265,ciclabili,,,,
390,VIA ETTORE MAJORANA,9.17988045496307,45.5137336072909,ciclabili,,,,
391,SOTTOPASSO VILLAPIZZONE - LAMBRUSCHINI - FUSINATO,9.15013573346726,45.5029306742295,ciclabili,,,,
392,VIA EMILIO DE MARCHI,9.21086900172897,45.5065527060725,ciclabili,,,,
393,VIA GIUSEPPE DEZZA,9.16151898034399,45.4599016236799,ciclabili,,,,
394,VIA ROBERTO COZZI,9.20939465238395,45.5088768388574,ciclabili,,,,
395,VIA ROBERTO COZZI,9.20905399707151,45.5085460577669,ciclabili,,,,
396,VIA PALMANOVA,9.23981188208874,45.4986219794341,ciclabili,,,,
397,PIAZZALE BACONE,9.21412433054996,45.4802549203596,ciclabili,,,,
398,VIA PADOVA,9.21799191758573,45.4870326598847,ciclabili,,,,
399,VIA PADOVA,9.22169019957001,45.4898219447783,ciclabili,,,,
400,VIA PADOVA,9.22265507066521,45.4905550262063,ciclabili,,,,
401,VIA PADOVA,9.2230506001772,45.4908104786477,ciclabili,,,,
402,VIA GIOVANNI BATTISTA MORGAGNI,9.21142320706852,45.4775945645037,ciclabili,,,,
403,VIA GIOVANNI BATTISTA MORGAGNI,9.21287931591896,45.4790013310806,ciclabili,,,,
404,PIAZZALE BACONE,9.21399570366243,45.4800807633915,ciclabili,,,,
405,PIAZZALE BACONE,9.21424575315003,45.480411532128,ciclabili,,,,
406,VIA PALMANOVA,9.24784989266617,45.5047491607716,ciclabili,,,,
407,VIA PALMANOVA,9.25322729244372,45.5088691630292,ciclabili,,,,
408,VIA PALMANOVA,9.24713306348428,45.5042603164812,ciclabili,,,,
409,VIA PALMANOVA,9.25523490254159,45.5111331358537,ciclabili,,,,
410,VIA FRATELLI CAMILLO E GIANNINO ANTONA TRAVERSI,9.13943913900028,45.5137000731907,ciclabili,,,,
411,PASSERELLA VIA CONCILIO VATICANO II - VIA CASCINA DEI PRATI,9.1489576715586,45.5143821231512,ciclabili,,,,
412,VIA GIUSEPPE GOVONE,9.16016379800575,45.494340750322,ciclabili,,,,
413,VIA GIUSEPPE GOVONE,9.16033960743938,45.4945405325387,ciclabili,,,,
414,VIA FILIPPO PALIZZI,9.14071208633803,45.5055006230928,ciclabili,,,,
415,VIA GUIDO VENOSTA,9.20687220885739,45.5106513020129,ciclabili,,,,
416,CORSO PLEBISCITI,9.22055938974611,45.4680101405864,ciclabili,,,,
417,VIA ARCANGELO CORELLI,9.25614809068372,45.470936117732,ciclabili,,,,
418,SOTTOPASSO VIA NEGROTTO - VIA PACUVIO,9.14915868081949,45.5031614995186,ciclabili,,,,
419,CORSO PLEBISCITI,9.22271334256219,45.4680025265072,ciclabili,,,,
420,CORSO PLEBISCITI,9.22146320966448,45.4680227984553,ciclabili,,,,
421,VIA FERDINANDO MARESCALCHI,9.23301493793919,45.4683479325845,ciclabili,,,,
422,VIA FERDINANDO MARESCALCHI,9.23684096595413,45.4694358856265,ciclabili,,,,
423,VIA MECENATE,9.24785922676957,45.4528368910775,ciclabili,,,,
424,VIA TUCIDIDE,9.2439122376786,45.4697411030311,ciclabili,,,,
425,VIA ARCANGELO CORELLI,9.25460735940435,45.4709474546479,ciclabili,,,,
426,VIALE DELL'AVIAZIONE,9.25444273963613,45.4615838326453,ciclabili,,,,
427,VIA MECENATE,9.24431948923803,45.4554447526812,ciclabili,,,,
428,VIA MECENATE,9.25064445297788,45.4507963205829,ciclabili,,,,
429,VIA VALENTINO MAZZOLA,9.22517439532431,45.4598272021295,ciclabili,,,,
430,VIA LAURA CICERI VISCONTI,9.22095228143425,45.4553981598657,ciclabili,,,,
431,PIAZZALE SUSA,9.22381870113991,45.4676043558296,ciclabili,,,,
432,VIA EMILIO FAA' DI BRUNO,9.22167662804945,45.4522751175841,ciclabili,,,,
433,VIALE DELL'AVIAZIONE,9.26063599394274,45.4532256625009,ciclabili,,,,
434,VIA MECENATE,9.2527006583257,45.4492883391297,ciclabili,,,,
435,VIALE MOLISE,9.22377010610066,45.4587124741541,ciclabili,,,,
436,VIALE MOLISE,9.224129442345,45.4587160457581,ciclabili,,,,
437,PIAZZALE FERDINANDO MARTINI,9.22170089050713,45.4574942460182,ciclabili,,,,
438,VIA LAURA CICERI VISCONTI,9.22095699899321,45.4548826374857,ciclabili,,,,
439,VIA EMILIO FAA' DI BRUNO,9.22315271933185,45.4513893981024,ciclabili,,,,
440,PIAZZALE VINCENZO CUOCO,9.22462461336068,45.4506152674735,ciclabili,,,,
441,PIAZZA BRUNO BUOZZI,9.20621321036776,45.449826032769,ciclabili,,,,
442,PIAZZA BRUNO BUOZZI,9.20574185355257,45.4495972518177,ciclabili,,,,
443,PIAZZALE VINCENZO CUOCO,9.22448203232786,45.4509860037261,ciclabili,,,,
444,VIA ARIOLI VENEGONI,9.11148944360715,45.4687115574397,ciclabili,,,,
445,PARCO ENRICO FORLANINI,9.25803088923133,45.4628505561728,ciclabili,,,,
446,PIAZZA DELLA CONCILIAZIONE,9.16547238849489,45.4675443505149,ciclabili,,,,
447,PIAZZA DELLA CONCILIAZIONE,9.16544422056956,45.4676867731539,ciclabili,,,,
448,VIA ALBERTO DA GIUSSANO,9.1627385196332,45.4693703334597,ciclabili,,,,
449,VIA ALBERTO DA GIUSSANO,9.16470439640675,45.4679346948807,ciclabili,,,,
450,VIA ALBERTO DA GIUSSANO,9.16468376190675,45.4679202667021,ciclabili,,,,
451,VIALE ENRICO FORLANINI,9.25668935697852,45.4617167903396,ciclabili,,,,
452,PIAZZALE GIULIO CESARE,9.15584276690194,45.4733826518104,ciclabili,,,,
453,PIAZZALE GIULIO CESARE,9.15523333214802,45.4734016452112,ciclabili,,,,
454,PIAZZALE GIULIO CESARE,9.15374567179082,45.4734773738726,ciclabili,,,,
455,VIALE CASSIODORO,9.15944998555301,45.4730897770163,ciclabili,,,,
456,VIA MONTE ROSA,9.14965349544882,45.4748070552432,ciclabili,,,,
457,VIA MONTE ROSA,9.14945443707417,45.4750017662232,ciclabili,,,,
458,VIA MONTE ROSA,9.14918514645144,45.47516141329,ciclabili,,,,
459,VIA ARCANGELO CORELLI,9.26544660662957,45.4704727359945,ciclabili,,,,
460,PIAZZA CARBONARI,9.20036955856017,45.4948708437533,ciclabili,,,,
461,VIA MONTE ROSA,9.14887377359361,45.4754069315274,ciclabili,,,,
462,VIA MONTE ROSA,9.14977744941109,45.4747081194081,ciclabili,,,,
463,VIA MONTE ROSA,9.14901659838586,45.4752823550142,ciclabili,,,,
464,VIA MONTE ROSA,9.14864784476907,45.4756186089821,ciclabili,,,,
465,VIA MONTE ROSA,9.14837167691292,45.4757920059987,ciclabili,,,,
466,VIA MONTE ROSA,9.14807186139405,45.4760144556189,ciclabili,,,,
467,VIA MONTE ROSA,9.14822126005348,45.4758946473824,ciclabili,,,,
468,VIA MONTE ROSA,9.14592156273539,45.477630300436,ciclabili,,,,
469,VIA GAETANO MORETTI,9.13080527824092,45.4856722544354,ciclabili,,,,
470,VIALE BELISARIO,9.15845196606695,45.4733406957523,ciclabili,,,,
471,VIA GIOVANNI BENSI,9.11524150146855,45.4454418903297,ciclabili,,,,
472,LARGO QUINTO ALPINI,9.16798007013624,45.4724949780114,ciclabili,,,,
473,VIA ALFREDO BACCARINI,9.24266830814087,45.5072290046187,ciclabili,,,,
474,VIA UMBERTO VISCONTI DI MODRONE,9.20003193621033,45.4646758135823,ciclabili,,,,
475,PIAZZA CARBONARI,9.19971734560009,45.4948383883396,ciclabili,,,,
476,VIA MARTINO BASSI,9.13841847996507,45.4839168133192,ciclabili,,,,
477,CAVALCAVIA EUGENIO BUSSA,9.18712985879924,45.4856596388399,ciclabili,,,,
478,VIA MONTE ROSA,9.14580816527919,45.4775491785591,ciclabili,,,,
479,VIA MARIO BORSA,9.10441213052824,45.4997506012192,ciclabili,,,,
480,VIA MONTE ROSA,9.14594662608673,45.4774170373456,ciclabili,,,,
481,VIA MONTE ROSA,9.14823186637996,45.4756900778948,ciclabili,,,,
482,VIA MONTE ROSA,9.14845783264002,45.4754770295848,ciclabili,,,,
483,VIA MONTE ROSA,9.14808510863839,45.4758162754263,ciclabili,,,,
484,VIA PIETRO GIORDANI,9.1247556147506,45.4408176271815,ciclabili,,,,
485,VIA MONTE ROSA,9.14889288533417,45.4751992309983,ciclabili,,,,
486,VIA VINCENZO MONTI,9.16718970795372,45.4724948419705,ciclabili,,,,
487,VIA MONTE ROSA,9.14963443892324,45.4746341679416,ciclabili,,,,
488,VIA BISCEGLIE,9.11950979798834,45.4485481064315,ciclabili,,,,
489,VIA BISCEGLIE,9.11881011995028,45.4498077578524,ciclabili,,,,
490,PIAZZA CARBONARI,9.19891521268964,45.4943662209263,ciclabili,,,,
491,VIA TUCIDIDE,9.2454511811103,45.4703621180224,ciclabili,,,,
492,VIA MONTE ROSA,9.15035629076363,45.4740584458764,ciclabili,,,,
493,VIA MONTE ROSA,9.15048678051723,45.4739494212472,ciclabili,,,,
494,VIA MONTE ROSA,9.1502532771055,45.4741402978123,ciclabili,,,,
495,VIA MONTE ROSA,9.15058705555773,45.4738734043943,ciclabili,,,,
496,VIA BENIGNO CRESPI,9.18505251574232,45.5023368273279,ciclabili,,,,
497,PIAZZALE VINCENZO CUOCO,9.22350845155751,45.4512958330557,ciclabili,,,,
498,PIAZZALE VINCENZO CUOCO,9.22461035055488,45.4508369123172,ciclabili,,,,
499,VIA MONTE ROSA,9.14690646700624,45.4766514060814,ciclabili,,,,
500,VIA LAURA CICERI VISCONTI,9.22027867777039,45.4558763775508,ciclabili,,,,
501,VIA CALDERA,9.10139648165429,45.4789674802581,ciclabili,,,,
502,VIA ARCANGELO CORELLI,9.26245457190811,45.4702135779061,ciclabili,,,,
503,VIA LAMPUGNANO,9.11436530548219,45.4901251251562,ciclabili,,,,
504,VIA MARIO BORSA,9.09321203104913,45.5056709568925,ciclabili,,,,
505,VIA MARIO BORSA,9.09226765516526,45.5065514653966,ciclabili,,,,
506,VIA LAMPUGNANO,9.11301302904404,45.4908661446097,ciclabili,,,,
507,VIA LAMPUGNANO,9.11493669248248,45.4898363188589,ciclabili,,,,
508,VIA CALDERA,9.09958144204058,45.4771863821465,ciclabili,,,,
509,VIA CALDERA,9.10233561949035,45.4788086575591,ciclabili,,,,
510,VIA CALDERA,9.10020765829239,45.4775303723342,ciclabili,,,,
511,VIA ANCONA,9.18680183108463,45.4738576176816,ciclabili,,,,
512,VIA MELCHIORRE GIOIA,9.20683318774107,45.4947921991227,ciclabili,,,,
513,VIA AGOSTINO BERTANI,9.17409287863242,45.4766743119196,ciclabili,,,,
514,VIA VENTI SETTEMBRE,9.16946540275262,45.4694015141315,ciclabili,,,,
515,VIA VENTI SETTEMBRE,9.16857096720744,45.4688216936235,ciclabili,,,,
516,VIA DOMENICO CIMAROSA,9.15860023756633,45.4653802047404,ciclabili,,,,
517,VIA DEI CAVALIERI DEL SANTO SEPOLCRO,9.18574932887579,45.4736496062112,ciclabili,,,,
518,VIALE GIORGIO BYRON,9.17575903611434,45.4766257651346,ciclabili,,,,
519,VIA PIETRO E MARIA CURIE,9.17197146719012,45.4712807346312,ciclabili,,,,
520,VIALE GADIO,9.18087130094497,45.4735868830313,ciclabili,,,,
521,VIA MELCHIORRE GIOIA,9.19402720394839,45.4834693850577,ciclabili,,,,
522,CORSO GIUSEPPE GARIBALDI,9.18371827363619,45.4733246212518,ciclabili,,,,
523,VIA PIETRO E MARIA CURIE,9.172678547155,45.4718391081346,ciclabili,,,,
524,VIA LEGNANO,9.18114751732668,45.4760100112536,ciclabili,,,,
525,PIAZZA PAOLO VI,9.18475632034139,45.4734635817473,ciclabili,,,,
526,VIA GIUSEPPE DEZZA,9.16069780312032,45.4607693535167,ciclabili,,,,
527,CORSO LODI,9.20507646769221,45.4503347020623,ciclabili,,,,
528,VIALE GIORGIO BYRON,9.17803615127812,45.4768664721734,ciclabili,,,,
529,VIA DELIO TESSA,9.18409518854379,45.473292250148,ciclabili,,,,
530,VIA PADOVA,9.21871200159535,45.4875693556265,ciclabili,,,,
531,VIA VENTI SETTEMBRE,9.17076850270661,45.470388667295,ciclabili,,,,
532,VIA ANCONA,9.18718397080799,45.4738953379891,ciclabili,,,,
533,VIALE MOLISE,9.22412723850023,45.4581179673701,ciclabili,,,,
534,VIA TUCIDIDE,9.24556873233733,45.4705405897739,ciclabili,,,,
535,VIA ANCONA,9.18748836657205,45.473925847875,ciclabili,,,,
536,VIA LEGNANO,9.18093436858034,45.4771729269187,ciclabili,,,,
537,VIA VENTI SETTEMBRE,9.17017985971756,45.4701447928386,ciclabili,,,,
538,VIA VENTI SETTEMBRE,9.17037520867855,45.4699973356418,ciclabili,,,,
539,VIALE MUGELLO,9.22374688547688,45.4614031541496,ciclabili,,,,
540,VIALE MUGELLO,9.22408181312731,45.4614155186059,ciclabili,,,,
541,VIA ROBERTO KOCH,9.1146556917664,45.444671661723,ciclabili,,,,
542,VIA VENTI SETTEMBRE,9.16767330282935,45.4682364518029,ciclabili,,,,
543,VIA GIOVANNI DE ALESSANDRI,9.15891010417688,45.4631337635318,ciclabili,,,,
544,VIA VENTI SETTEMBRE,9.16926480127918,45.4695465472845,ciclabili,,,,
545,VIA VENTI SETTEMBRE,9.1669989411489,45.4677966129399,ciclabili,,,,
546,VIA VENTI SETTEMBRE,9.16988876488869,45.4696765895264,ciclabili,,,,
547,VIA VENTI SETTEMBRE,9.16968855602346,45.4698239605164,ciclabili,,,,
548,VIA DOMENICO CIMAROSA,9.15866713762009,45.4642281851059,ciclabili,,,,
549,VIA DOMENICO CIMAROSA,9.15886728819817,45.4659571954932,ciclabili,,,,
550,BASTIONI DI PORTA VENEZIA,9.20087422626575,45.4760672104409,ciclabili,,,,
551,VIA GIOVANNI DE ALESSANDRI,9.15915096555084,45.4625927136619,ciclabili,,,,
552,VIA PALMANOVA,9.25607712138604,45.5101155203117,ciclabili,,,,
553,VIA MARIO PAGANO,9.16051227791426,45.4683791433957,ciclabili,,,,
554,VIA DOMENICO CIMAROSA,9.15866514813456,45.465021437287,ciclabili,,,,
555,VIA PADOVA,9.22337573628712,45.4910128840741,ciclabili,,,,
556,VIA MODESTINO,9.1690576660714,45.4579125488487,ciclabili,,,,
557,VIA OLONA,9.17184945004807,45.4605309622003,ciclabili,,,,
558,VIA MARIO PAGANO,9.16011837521715,45.4678304242489,ciclabili,,,,
559,PIAZZA SANT'AGOSTINO,9.17010082625919,45.4589518497717,ciclabili,,,,
560,VIA GIUSEPPE DEZZA,9.15933809809193,45.4619658833674,ciclabili,,,,
561,VIALE PAPINIANO,9.1693763718265,45.4582414198962,ciclabili,,,,
562,PIAZZA ERMETE NOVELLI,9.2188024286302,45.4707062512835,ciclabili,,,,
563,VIA ELIO VITTORINI,9.26248698950457,45.4446073556281,ciclabili,,,,
564,VIA MARIO PAGANO,9.15963856871771,45.4673710124027,ciclabili,,,,
565,VIA GIOVANNI DE ALESSANDRI,9.15887792768124,45.4636223858255,ciclabili,,,,
566,VIA DOMENICO CIMAROSA,9.15862277902627,45.4651511384123,ciclabili,,,,
567,VIA DOMENICO CIMAROSA,9.15846688468027,45.464297895237,ciclabili,,,,
568,VIA DOMENICO CIMAROSA,9.15882970441455,45.4641125113944,ciclabili,,,,
569,VIA GIUSEPPE DEZZA,9.15941292818496,45.4620667579452,ciclabili,,,,
570,VIA GIUSEPPE DEZZA,9.16040756118985,45.4606480217119,ciclabili,,,,
571,VIA GIUSEPPE DEZZA,9.16168832711965,45.4599695223532,ciclabili,,,,
572,PIAZZA SANT'AGOSTINO,9.17076389970402,45.4595495854993,ciclabili,,,,
573,VIA OLONA,9.17273168531038,45.461331265742,ciclabili,,,,
574,VIA GIUSEPPE DEZZA,9.1628526675134,45.4596238523988,ciclabili,,,,
575,VIA GIUSEPPE DEZZA,9.1627577572246,45.4593544515438,ciclabili,,,,
576,VIALE PAPINIANO,9.16953404875778,45.4584156791108,ciclabili,,,,
577,VIA PALMANOVA,9.24653252294868,45.5037694158184,ciclabili,,,,
578,CORSO LODI,9.20674589332788,45.4492405424657,ciclabili,,,,
579,PIAZZA DELLA REPUBBLICA,9.19829567234595,45.4793912211642,ciclabili,,,,
580,VIA FRANCESCO FERRUCCI,9.16307881725742,45.4784190222503,ciclabili,,,,
581,VIA FRANCESCO FERRUCCI,9.16431757952286,45.4793761623964,ciclabili,,,,
582,PIAZZA SANDRO PERTINI,9.07016467116367,45.4574484332418,ciclabili,,,,
583,VIA ANTONIO MOSCA,9.08209170886941,45.4573045538211,ciclabili,,,,
584,PIAZZA SANDRO PERTINI,9.07044385426605,45.4570592287621,ciclabili,,,,
585,VIA CUSAGO,9.06373865024709,45.4562592149196,ciclabili,,,,
586,VIA CASCINA BELLARIA,9.10639495040466,45.4798283041244,ciclabili,,,,
587,VIA CUSAGO,9.06139677239897,45.4555678044613,ciclabili,,,,
588,VIA VALSESIA,9.09868929241232,45.4506816370107,ciclabili,,,,
589,VIA VALSESIA,9.09879266400695,45.4508703311894,ciclabili,,,,
590,VIA BISCEGLIE,9.11849761434026,45.4510304103936,ciclabili,,,,
591,VIA BISCEGLIE,9.11964327987403,45.4487249076312,ciclabili,,,,
592,VIA BISCEGLIE,9.11931197982488,45.4486068043385,ciclabili,,,,
593,VIA VENTI SETTEMBRE,9.16732256784805,45.4680077088069,ciclabili,,,,
594,VIA GIUSEPPE DEZZA,9.15973306889669,45.4613039993542,ciclabili,,,,
595,VIA VALSESIA,9.09856600137259,45.4513173216018,ciclabili,,,,
596,VIA VALSESIA,9.09823987261676,45.4525159361971,ciclabili,,,,
597,VIA GIOVANNI BENSI,9.11893475419272,45.4466383550303,ciclabili,,,,
598,VIA GIOVANNI BENSI,9.11715575190641,45.4460451757649,ciclabili,,,,
599,VIA GIOVANNI BENSI,9.11652298495942,45.4458465472456,ciclabili,,,,
600,VIA PALMANOVA,9.25478045540179,45.5106581368326,ciclabili,,,,
601,VIA PIETRO GIORDANI,9.12501480848155,45.4398994988425,ciclabili,,,,
602,VIA PIETRO GIORDANI,9.1253861519733,45.4389532624365,ciclabili,,,,
603,VIA PIETRO GIORDANI,9.12216960781499,45.4452152851259,ciclabili,,,,
604,VIA GIOVANNI BENSI,9.11624664061423,45.445759748079,ciclabili,,,,
605,VIA ROBERTO KOCH,9.11461549392473,45.4449658789225,ciclabili,,,,
606,PIAZZALE DELLE MILIZIE,9.15769443358286,45.4480032096684,ciclabili,,,,
607,VIA GIUDITTA PASTA,9.18421264368318,45.5141493135786,ciclabili,,,,
608,STRADA DEL MOLINETTO DI LORENTEGGIO,9.11926825428301,45.4388408143234,ciclabili,,,,
609,VIA GIUSEPPE DEZZA,9.16032207763388,45.460723390073,ciclabili,,,,
610,PIAZZALE DELLE MILIZIE,9.15744659936803,45.4485610926817,ciclabili,,,,
611,PIAZZALE DELLE MILIZIE,9.15733083587437,45.4487835997702,ciclabili,,,,
612,VIALE ENRICO FERMI,9.17904184707401,45.5128064915927,ciclabili,,,,
613,PIAZZALE DELLE MILIZIE,9.15739183305172,45.4486716105521,ciclabili,,,,
614,VIALE CASSALA,9.15795351389211,45.447432981552,ciclabili,,,,
615,PIAZZALE DELLE MILIZIE,9.15629076033547,45.4499444099494,ciclabili,,,,
616,PIAZZALE DELLE MILIZIE,9.15642748819519,45.4495701604837,ciclabili,,,,
617,VIA GIOVANNI BATTISTA MORGAGNI,9.21159523617141,45.4777679657381,ciclabili,,,,
618,VIA GIOVANNI BATTISTA MORGAGNI,9.21230301331126,45.4784815594049,ciclabili,,,,
619,VIALE CASSALA,9.15803300382398,45.447299546643,ciclabili,,,,
620,PIAZZALE DELLE MILIZIE,9.15598055143619,45.4501452235358,ciclabili,,,,
621,PIAZZALE DELLE MILIZIE,9.15596682106843,45.4498278261252,ciclabili,,,,
622,VIA MONTE ROSA,9.15060239058623,45.4741268632166,ciclabili,,,,
623,VIA OLGETTINA,9.26636489341475,45.5096452577407,ciclabili,,,,
624,VIA OLGETTINA,9.26653745957493,45.5099141382197,ciclabili,,,,
625,VIA PALMANOVA,9.25301205616595,45.5090701312518,ciclabili,,,,
626,ALZAIA NAVIGLIO GRANDE,9.16740679768307,45.4503014014611,ciclabili,,,,
627,VIA GIUSEPPE DEZZA,9.160608977266,45.4608387411012,ciclabili,,,,
628,VIA PALMANOVA,9.25508709034258,45.5112112784168,ciclabili,,,,
629,VIA FRATELLI CAMILLO E GIANNINO ANTONA TRAVERSI,9.13972703711792,45.5127824871255,ciclabili,,,,
630,VIA VENTI SETTEMBRE,9.16838251651174,45.4689689244676,ciclabili,,,,
631,VIA FERDINANDO MARESCALCHI,9.23451621076678,45.468842371924,ciclabili,,,,
632,VIA ALBERTO DA GIUSSANO,9.16531148340147,45.467709757646,ciclabili,,,,
633,CAVALCAVIA EUGENIO BUSSA,9.18610439015783,45.4849702626844,ciclabili,,,,
634,CAVALCAVIA EUGENIO BUSSA,9.18722619419558,45.4856338055776,ciclabili,,,,
635,VIA CHERUBINI,9.15951586475291,45.4670576120106,ciclabili,,,,
636,VIALE FAMAGOSTA,9.16666768894154,45.4377100776645,ciclabili,,,,
637,PIAZZA GIOVANNI AMENDOLA,9.15108844781707,45.474007112065,ciclabili,,,,
638,VIA GIOVANNI SCHIAVONI,9.17190837073748,45.4378086029736,ciclabili,,,,
639,VIA SPEZIA,9.17162738363947,45.4381600114899,ciclabili,,,,
640,VIA GIOVANNI PALATUCCI,9.16652622474975,45.4361949558207,ciclabili,,,,
641,VIA GIOSUE' CARDUCCI,9.17464059878689,45.4643297613065,ciclabili,,,,
642,VIA SPEZIA,9.1713567016134,45.4385595453336,ciclabili,,,,
643,VIALE FAMAGOSTA,9.16964360860659,45.4378395539527,ciclabili,,,,
644,CORSO LODI,9.22389214431997,45.439903341574,ciclabili,,,,
645,CORSO LODI,9.20934660644225,45.4475791033715,ciclabili,,,,
646,VIA TUCIDIDE,9.2444992417214,45.4699615386069,ciclabili,,,,
647,VIA GIUSEPPE DEZZA,9.16212816826376,45.4596105282113,ciclabili,,,,
648,VIA FRANCESCO FERRUCCI,9.16529446164157,45.4803654904904,ciclabili,,,,
649,VIA PALMANOVA,9.25520336699547,45.5109823392684,ciclabili,,,,
650,VIA PALMANOVA,9.25046949171535,45.5067392337961,ciclabili,,,,
651,VIA LUIGI BERTELLI,9.22226990334416,45.5037588048344,ciclabili,,,,
652,VIA LUIGI BERTELLI,9.23044506126636,45.5037600037794,ciclabili,,,,
653,VIA DELLE FORZE ARMATE,9.11854872333846,45.4611613932944,ciclabili,,,,
654,VIA TIRANO,9.21205306220993,45.4981506052492,ciclabili,,,,
655,VIA NOVARA,9.10351854811983,45.4798552650559,ciclabili,,,,
656,VIA CALDERA,9.1014119424585,45.4780788366955,ciclabili,,,,
657,BASTIONI DI PORTA VENEZIA,9.20508451185775,45.4743514598858,ciclabili,,,,
658,VIA PADOVA,9.21908674790702,45.4878492440596,ciclabili,,,,
659,VIA PADOVA,9.21947337413756,45.4881396401357,ciclabili,,,,
660,VIA DONNA PRASSEDE,9.10679207250693,45.4795225674618,ciclabili,,,,
661,AREA VERDE DI VIA GIOVANNI FATTORI,9.13507949908076,45.5079304128996,ciclabili,,,,
662,PONTE VIA BERTELLI - VIA LISCATE,9.2322230683384,45.5038585251552,ciclabili,,,,
663,VIA IDRO,9.25397527313346,45.5134571410479,ciclabili,,,,
664,VIA LUIGI BERTELLI,9.22853172674422,45.503427806769,ciclabili,,,,
665,VIA MELCHIORRE GIOIA,9.2075664180559,45.4952230404024,ciclabili,,,,
666,VIA VITTOR PISANI,9.19999616599062,45.4815703979354,ciclabili,,,,
667,VIA MELCHIORRE GIOIA,9.20829175869773,45.4970008218783,ciclabili,,,,
668,VIA EUGENIO DONADONI,9.11971319585778,45.4918564006353,ciclabili,,,,
669,VIALE ENRICO FERMI,9.17906536440813,45.513455164412,ciclabili,,,,
670,PARCO DON GIUSSANI,9.16642181365871,45.4581135972786,ciclabili,,,,
671,VIA GIUSEPPE DEZZA,9.16228534274438,45.4598448852496,ciclabili,,,,
672,VIA VITTOR PISANI,9.20235621307612,45.4839330075724,ciclabili,,,,
673,BASTIONI DI PORTA VENEZIA,9.20285512228749,45.4750076668619,ciclabili,,,,
674,VIA GIACOMO QUARENGHI,9.12056854677195,45.4953563363284,ciclabili,,,,
675,PIAZZA PAOLO VI,9.18506406245237,45.4735182683533,ciclabili,,,,
676,VIA GIOSUE' CARDUCCI,9.17603107615423,45.4667112575909,ciclabili,,,,
677,VIA GIOSUE' CARDUCCI,9.17533103678165,45.4655567150004,ciclabili,,,,
678,VIA GIOSUE' CARDUCCI,9.1749962737335,45.4649752213809,ciclabili,,,,
679,VIA GIOSUE' CARDUCCI,9.17484563910862,45.4647010554411,ciclabili,,,,
680,VIA GIOSUE' CARDUCCI,9.17619493943793,45.4669494482329,ciclabili,,,,
681,VIA FRANCESCO SFORZA,9.19571293209421,45.4599231538502,ciclabili,,,,
682,VIA FRANCESCO CILEA,9.1066310951161,45.4955716393812,ciclabili,,,,
683,VIA FRANCESCO SFORZA,9.19716496357802,45.461461573081,ciclabili,,,,
684,VIA TOFANE,9.21722419147933,45.5009238707622,ciclabili,,,,
685,AREA VERDE DI VIA FILIPPO PALIZZI,9.14036390005538,45.504869564352,ciclabili,,,,
686,VIA GIORGIO PALLAVICINO,9.16124248447198,45.4698295968413,ciclabili,,,,
687,VIA UMBERTO VISCONTI DI MODRONE,9.20018739785633,45.4649537078517,ciclabili,,,,
688,VIA UMBERTO VISCONTI DI MODRONE,9.20057096117753,45.4663369373729,ciclabili,,,,
689,VIA SAN DAMIANO,9.20019685164773,45.4677114496793,ciclabili,,,,
690,VIA MELCHIORRE GIOIA,9.20657766797954,45.4941171457147,ciclabili,,,,
691,VIALE ENRICO FERMI,9.17876194238679,45.5140742918564,ciclabili,,,,
692,VIA EMILIO FAA' DI BRUNO,9.22237284435416,45.4518755960879,ciclabili,,,,
693,VIA TOFANE,9.21703077348032,45.500536645013,ciclabili,,,,
694,VIA TOFANE,9.21764544278829,45.501713532686,ciclabili,,,,
695,BASTIONI DI PORTA VENEZIA,9.20419208281951,45.4746836692828,ciclabili,,,,
696,BASTIONI DI PORTA VENEZIA,9.20439589741616,45.4745841671978,ciclabili,,,,
697,CORSO GIUSEPPE GARIBALDI,9.18357657054098,45.4734093361883,ciclabili,,,,
698,BASTIONI DI PORTA VENEZIA,9.20491334996725,45.47429496232,ciclabili,,,,
699,VIALE CITTA DI FIUME,9.20038147499923,45.4761456576543,ciclabili,,,,
700,BASTIONI DI PORTA VENEZIA,9.20429291239791,45.4746335814315,ciclabili,,,,
701,BASTIONI DI PORTA VENEZIA,9.20095604894493,45.4760286632499,ciclabili,,,,
702,VIA VITTOR PISANI,9.1991387973475,45.4804808992547,ciclabili,,,,
703,VIA VITTOR PISANI,9.20090182476073,45.4822706392591,ciclabili,,,,
704,PIAZZA DUCA D'AOSTA,9.202956679918,45.4838685594878,ciclabili,,,,
705,PIAZZA DUCA D'AOSTA,9.20216809950413,45.4848400072864,ciclabili,,,,
706,VIA VITTOR PISANI,9.2001410863305,45.4814694532595,ciclabili,,,,
707,VIA VITTOR PISANI,9.20058191202156,45.4819549478843,ciclabili,,,,
708,VIA VITTOR PISANI,9.20108616379997,45.4824576563178,ciclabili,,,,
709,VIA VITTOR PISANI,9.20064092408558,45.4824371700001,ciclabili,,,,
710,VIA VITTOR PISANI,9.19994440635691,45.4817427516518,ciclabili,,,,
711,PIAZZA DELLA REPUBBLICA,9.19859493963031,45.4804523058266,ciclabili,,,,
712,VIA NAZARIO SAURO,9.19867063136062,45.491048093149,ciclabili,,,,
713,PIAZZA DELLA REPUBBLICA,9.19817466762018,45.4800696443537,ciclabili,,,,
714,PIAZZA DELLA REPUBBLICA,9.19774840365487,45.4796528342524,ciclabili,,,,
715,VIA NAZARIO SAURO,9.19851563671158,45.4908421066664,ciclabili,,,,
716,PIAZZA DELLA REPUBBLICA,9.19752255509799,45.4794139014658,ciclabili,,,,
717,CORSO VENEZIA,9.20337651602174,45.4726022885854,ciclabili,,,,
718,VIA STRESA,9.20310593992524,45.4934478522451,ciclabili,,,,
719,PIAZZA CARBONARI,9.1987803200836,45.4935141438074,ciclabili,,,,
720,PIAZZA CARBONARI,9.20045439657302,45.4928312456927,ciclabili,,,,
721,PIAZZA CARBONARI,9.20056246804546,45.4928475281078,ciclabili,,,,
722,VIA STRESA,9.20303062442282,45.4933416804278,ciclabili,,,,
723,PIAZZA CARBONARI,9.20136001985038,45.4944361505434,ciclabili,,,,
724,VIA TUCIDIDE,9.24550408852575,45.4704427975134,ciclabili,,,,
725,VIA TUCIDIDE,9.24537908048776,45.4702604351833,ciclabili,,,,
726,VIA PAOLO SARPI,9.17896820283425,45.4816686946448,ciclabili,,,,
727,VIA GIOVANNI BATTISTA MORGAGNI,9.21106244420653,45.4772269541603,ciclabili,,,,
728,VIA ARCANGELO CORELLI,9.24737079818006,45.4710504501715,ciclabili,,,,
729,VIA TUCIDIDE,9.24553776203084,45.4704936259639,ciclabili,,,,
730,BASTIONI DI PORTA VENEZIA,9.2049447214799,45.4744378144867,ciclabili,,,,
731,CORSO VENEZIA,9.2023019555805,45.471601411965,ciclabili,,,,
732,CORSO VENEZIA,9.20280922559753,45.4720515411032,ciclabili,,,,
733,VIALE FRANCESCO RESTELLI,9.19923692489359,45.492362537987,ciclabili,,,,
734,VIALE FRANCESCO RESTELLI,9.19733999114866,45.490047619848,ciclabili,,,,
735,BASTIONI DI PORTA VENEZIA,9.20467638592497,45.4742499647655,ciclabili,,,,
736,BASTIONI DI PORTA VENEZIA,9.20493257849988,45.4741294285743,ciclabili,,,,
737,CORSO VENEZIA,9.20293545615717,45.4721598735657,ciclabili,,,,
738,CORSO VENEZIA,9.20379949399504,45.4730307570487,ciclabili,,,,
739,CORSO VENEZIA,9.20428726761925,45.4735159406499,ciclabili,,,,
740,CORSO INDIPENDENZA,9.21229765970067,45.4677392083994,ciclabili,,,,
741,VIA PAOLO SARPI,9.18125508267268,45.4818774512795,ciclabili,,,,
742,VIA VITTORIO GASSMAN,9.2370542609551,45.5126735033855,ciclabili,,,,
743,VIA PAOLO SARPI,9.17877651452887,45.4816640887068,ciclabili,,,,
744,VIA PAOLO SARPI,9.17041985898826,45.4809829780739,ciclabili,,,,
745,VIA ELIO VITTORINI,9.26515539850874,45.4445334710922,ciclabili,,,,
746,VIA VITTORIO GASSMAN,9.23785558375922,45.51300913,ciclabili,,,,
747,VIA IDRO,9.25456125988724,45.5144940164206,ciclabili,,,,
748,VIALE CITTA DI FIUME,9.198655993577,45.4772310309792,ciclabili,,,,
749,PIAZZA DUCA D'AOSTA,9.20227250681647,45.4851973338801,ciclabili,,,,
750,VIA ELIO VITTORINI,9.26618579551128,45.4444541703778,ciclabili,,,,
751,VIALE CITTA DI FIUME,9.19877387756019,45.4769280898914,ciclabili,,,,
752,BASTIONI DI PORTA VENEZIA,9.20090338296145,45.4758981306706,ciclabili,,,,
753,CORSO INDIPENDENZA,9.21227337212571,45.468113906403,ciclabili,,,,
754,BASTIONI DI PORTA VENEZIA,9.20190486319993,45.4754431917547,ciclabili,,,,
755,BASTIONI DI PORTA VENEZIA,9.2009825159988,45.4758606385208,ciclabili,,,,
756,BASTIONI DI PORTA VENEZIA,9.200820458758,45.4759381669684,ciclabili,,,,
757,VIALE CITTA DI FIUME,9.19851750817395,45.477071983012,ciclabili,,,,
758,VIA EMANUELE KANT,9.11669152770345,45.4948908594532,ciclabili,,,,
759,VIALE CITTA DI FIUME,9.19809041489551,45.4772823560804,ciclabili,,,,
760,CORSO VENEZIA,9.20285891908603,45.4722462057479,ciclabili,,,,
761,PIAZZA SAN MARCO,9.18781547878151,45.4733751306604,ciclabili,,,,
762,PIAZZA INSUBRIA,9.22063633579866,45.453520598054,ciclabili,,,,
763,PIAZZA INSUBRIA,9.22139424819817,45.4531638591988,ciclabili,,,,
764,PIAZZA INSUBRIA,9.22063511887328,45.4524793116712,ciclabili,,,,
765,VIA PONTACCIO,9.18759633923134,45.472882944751,ciclabili,,,,
766,PIAZZA SAN MARCO,9.18783755745748,45.472953214218,ciclabili,,,,
767,PIAZZA INSUBRIA,9.21987312213901,45.453168697468,ciclabili,,,,
768,VIA TOFANE,9.22123919294255,45.5035711512051,ciclabili,,,,
769,PARCO QUARTO CAGNINO,9.1084174947117,45.4702439855442,ciclabili,,,,
770,PARCO QUARTO CAGNINO,9.10671916117868,45.4698921047026,ciclabili,,,,
771,PARCO QUARTO CAGNINO,9.10738465723776,45.4700238697609,ciclabili,,,,
772,VIA GIUSEPPE DEZZA,9.16000181898326,45.461449294914,ciclabili,,,,
773,PIAZZA SANDRO PERTINI,9.07001401555867,45.4568129193626,ciclabili,,,,
774,VIA DELLE FORZE ARMATE,9.11723109024648,45.4608816916628,ciclabili,,,,
775,PIAZZA CARBONARI,9.19992866322897,45.4928554175019,ciclabili,,,,
776,VIA BISCEGLIE,9.11966708833966,45.4485957906421,ciclabili,,,,
777,STRADA DEL MOLINETTO DI LORENTEGGIO,9.1189707092356,45.439129029999,ciclabili,,,,
778,VIA FRATELLI CAMILLO E GIANNINO ANTONA TRAVERSI,9.13986601277053,45.5137574375539,ciclabili,,,,
779,VIA ARCANGELO CORELLI,9.26181987567302,45.4701582535963,ciclabili,,,,
780,VIA MELCHIORRE GIOIA,9.20741183955679,45.494919298604,ciclabili,,,,
781,VIALE DELL'INNOVAZIONE,9.21048525190233,45.5099437001555,ciclabili,,,,
782,PIAZZALE FERDINANDO MARTINI,9.22156542463502,45.4574327485566,ciclabili,,,,
783,PIAZZALE CARLO MACIACHINI,9.18584089819366,45.4977648956047,ciclabili,,,,
784,VIA LAMPUGNANO,9.10737830243859,45.4924943537409,ciclabili,,,,
785,VIA LAMPUGNANO,9.10732596402189,45.4926443960402,ciclabili,,,,
786,VIA ALFREDO PANZINI,9.16102601273445,45.4705796538463,ciclabili,,,,
787,PIAZZALE FERDINANDO MARTINI,9.22089677362564,45.4559683688504,ciclabili,,,,
788,VIA VALSESIA,9.09832566633705,45.4503768046098,ciclabili,,,,
789,VIA DOMENICO CIMAROSA,9.15897835834538,45.4658177545359,ciclabili,,,,
790,VIA GIUSEPPE DEZZA,9.16094452825502,45.4602522994888,ciclabili,,,,
791,VIA NOVARA,9.10323839516589,45.4798580323791,ciclabili,,,,
792,VIA LUIGI BERTELLI,9.23727836331173,45.5048357084309,ciclabili,,,,
793,VIA LUIGI BERTELLI,9.23775106730555,45.5049544794663,ciclabili,,,,
794,PIAZZA CARBONARI,9.20136275025453,45.4933398784672,ciclabili,,,,
795,VIA VITTOR PISANI,9.20241800966642,45.4837392273027,ciclabili,,,,
796,VIA DELLE FORZE ARMATE,9.12574766030372,45.4626995455665,ciclabili,,,,
797,SOTTOPASSO VILLAPIZZONE - LAMBRUSCHINI - FUSINATO,9.14993320114626,45.5029598288392,ciclabili,,,,
798,VIA CASTELLAMMARE,9.14159793423339,45.5110526717592,ciclabili,,,,
799,CORSO INDIPENDENZA,9.21535842958438,45.4677723538065,ciclabili,,,,
800,VIA RICCARDO BACCHELLI,9.10833921168576,45.4970161697128,ciclabili,,,,
801,VIA CASTELLAMMARE,9.13954201681698,45.5107569525691,ciclabili,,,,
802,VIA CASTELLAMMARE,9.14145101901395,45.5110301102554,ciclabili,,,,
803,VIA FILIPPO DE PISIS,9.1421439898433,45.511529352782,ciclabili,,,,
804,SOTTOPASSO VILLAPIZZONE - LAMBRUSCHINI - FUSINATO,9.1496830628623,45.5030961156759,ciclabili,,,,
805,VIA CASTELLAMMARE,9.14130656547144,45.5110081394534,ciclabili,,,,
806,VIA BISCEGLIE,9.11984969794141,45.447846549755,ciclabili,,,,
807,BASTIONI DI PORTA VENEZIA,9.20457147320109,45.4741505912487,ciclabili,,,,
808,VIA FILIPPO DE PISIS,9.14116471956788,45.5114023497833,ciclabili,,,,
809,VIA FILIPPO DE PISIS,9.14455930970983,45.5115774132208,ciclabili,,,,
810,VIA FILIPPO DE PISIS,9.14600796945365,45.5115927218211,ciclabili,,,,
811,VIA INVERIGO,9.13459722998639,45.493615271986,ciclabili,,,,
812,VIA PADRE CARLO SALERIO,9.12918148950157,45.492492721335,ciclabili,,,,
813,PIAZZALE FERDINANDO MARTINI,9.22029755758297,45.4559623422817,ciclabili,,,,
814,VIA FRANCESCO CILEA,9.10613183821239,45.4943712105155,ciclabili,,,,
815,VIA CASTELLAMMARE,9.14482604815612,45.5114050230276,ciclabili,,,,
816,VIA VITTOR PISANI,9.2009843904688,45.4827702094381,ciclabili,,,,
817,VIA FILIPPO DE PISIS,9.14626740612239,45.511593605604,ciclabili,,,,
818,VIA FILIPPO DE PISIS,9.14479494904979,45.5115152918918,ciclabili,,,,
819,VIA FILIPPO DE PISIS,9.14007309526212,45.5113848421611,ciclabili,,,,
820,VIA CASTELLAMMARE,9.14325343921299,45.5111737854854,ciclabili,,,,
821,VIALE ENRICO FERMI,9.17847119103693,45.5142778562921,ciclabili,,,,
822,PIAZZALE FERDINANDO MARTINI,9.22059584769738,45.4559830548058,ciclabili,,,,
823,VIA DELLE FORZE ARMATE,9.12124625096087,45.4617382030625,ciclabili,,,,
824,VIA DELLE FORZE ARMATE,9.12208100412788,45.4618147020438,ciclabili,,,,
825,VIA DELLE FORZE ARMATE,9.11860756334706,45.4610707363428,ciclabili,,,,
826,VIA DELLE FORZE ARMATE,9.11739710019102,45.460813968864,ciclabili,,,,
827,VIA VOLTURNO,9.19118344875622,45.4885148262938,ciclabili,,,,
828,VIALE TURCHIA,9.25981228297037,45.4966208276731,ciclabili,,,,
829,VIA GIUSEPPE DEZZA,9.16172996200429,45.4601048390441,ciclabili,,,,
830,VIALE TURCHIA,9.25496606530569,45.4946945727283,ciclabili,,,,
831,VIA POMPEO MARCHESI,9.1048114529272,45.4709016258531,ciclabili,,,,
832,VIA TERTULLIANO,9.22914850891278,45.4460620305147,ciclabili,,,,
833,CORSO LODI,9.20575267525047,45.4499368494966,ciclabili,,,,
834,VIA ADAMELLO,9.20317982689029,45.4431922411247,ciclabili,,,,
835,VIA SAN GIUSEPPE COTTOLENGO,9.14657582006134,45.4424953340259,ciclabili,,,,
836,VIA SANTA RITA DA CASCIA,9.14867605570667,45.4418141812848,ciclabili,,,,
837,PIAZZA GIORGIO SIMONE OHM,9.14755636541992,45.4424581622929,ciclabili,,,,
838,PIAZZALE LODI,9.21017455812727,45.4473314746798,ciclabili,,,,
839,VIA GIOVANNI LORENZINI,9.20238821850778,45.4441700058851,ciclabili,,,,
840,VIA ADAMELLO,9.20324772029945,45.4441773387189,ciclabili,,,,
841,VIA ADAMELLO,9.20311254898872,45.4439911888154,ciclabili,,,,
842,VIA ADAMELLO,9.20325871038151,45.4422841374565,ciclabili,,,,
843,PIAZZA BRUNO BUOZZI,9.20583600296423,45.4492787125209,ciclabili,,,,
844,VIA RICCARDO BACCHELLI,9.11022496452475,45.496771892722,ciclabili,,,,
845,PIAZZA RISORGIMENTO,9.21090280741646,45.4677097522688,ciclabili,,,,
846,VIA GIUSEPPE DEZZA,9.16120156672945,45.4604231373001,ciclabili,,,,
847,VIA LEGNANO,9.18131976193243,45.4750037950877,ciclabili,,,,
848,VIA LEGNANO,9.18140706141266,45.4745032144088,ciclabili,,,,
849,VIA LEGNANO,9.18097205025016,45.4770135045955,ciclabili,,,,
850,CORSO GIUSEPPE GARIBALDI,9.18364068178403,45.4734164547978,ciclabili,,,,
851,PIAZZA DELLA REPUBBLICA,9.19807873801596,45.4773432842765,ciclabili,,,,
852,PIAZZA LEGA LOMBARDA,9.18083253195389,45.4773469094626,ciclabili,,,,
853,VIALE REPUBBLICA CISALPINA,9.17861578893324,45.4770337308882,ciclabili,,,,
854,VIALE ELVEZIA,9.17929320715962,45.4771441559017,ciclabili,,,,
855,VIALE GIORGIO BYRON,9.17749909436314,45.4766014399464,ciclabili,,,,
856,CORSO VERCELLI,9.1593053796115,45.4665676845433,ciclabili,,,,
857,PIAZZA LEGA LOMBARDA,9.18062446422548,45.4775683499781,ciclabili,,,,
858,VIALE ALCIDE DE GASPERI,9.13833786063087,45.4922252295142,ciclabili,,,,
859,ALZAIA NAVIGLIO GRANDE,9.16983619233412,45.4508506971116,ciclabili,,,,
860,VIALE GIORGIO BYRON,9.17700059401417,45.476292831886,ciclabili,,,,
861,VIA GIUSEPPE REVERE,9.17060530070535,45.4708688062027,ciclabili,,,,
862,VIA GIUSEPPE REVERE,9.17046366566629,45.471242547735,ciclabili,,,,
863,VIA BISCEGLIE,9.12067739778089,45.4471166550364,ciclabili,,,,
864,CORSO VENEZIA,9.20259664360588,45.472142116131,ciclabili,,,,
865,VIA VENTI SETTEMBRE,9.17073671474228,45.4704917347891,ciclabili,,,,
866,VIA POMPEO MARCHESI,9.1034413435958,45.470926717925,ciclabili,,,,
867,ALZAIA NAVIGLIO GRANDE,9.17524000319433,45.4519638725838,ciclabili,,,,
868,VIA PALESTRO,9.20171759873444,45.4723227904013,ciclabili,,,,
869,VIA PALMANOVA,9.24581052558128,45.5032357896946,ciclabili,,,,
870,VIA OLONA,9.17108959629439,45.4598430724918,ciclabili,,,,
871,PIAZZA GIAN ANTONIO MAGGI,9.1713537466912,45.4377921495228,ciclabili,,,,
872,PIAZZA GIAN ANTONIO MAGGI,9.17080239661331,45.4377833238505,ciclabili,,,,
873,VIALE FRANCESCO RESTELLI,9.1956125247014,45.4883801476495,ciclabili,,,,
874,VIA PIETRO GIORDANI,9.12433789211015,45.4418252247175,ciclabili,,,,
875,VIA PIETRO GIORDANI,9.12382087834724,45.4428721691252,ciclabili,,,,
876,VIA PIETRO GIORDANI,9.12402029812635,45.4424856219721,ciclabili,,,,
877,CAVALCAVIA EUGENIO BUSSA,9.18778658572726,45.485602699527,ciclabili,,,,
878,VIALE FRANCESCO RESTELLI,9.1955613420128,45.4882597955087,ciclabili,,,,
879,VIALE FRANCESCO RESTELLI,9.19580799209475,45.4881467337625,ciclabili,,,,
880,VIA EUGENIO MONTALE,9.11757467822194,45.4884073910797,ciclabili,,,,
881,VIA EUGENIO MONTALE,9.11749172154,45.4884531111879,ciclabili,,,,
882,PIAZZALE DATEO,9.21596616019246,45.4681469456063,ciclabili,,,,
883,PIAZZALE DATEO,9.21648100723942,45.4681529024322,ciclabili,,,,
884,CORSO INDIPENDENZA,9.21401923692218,45.468130856251,ciclabili,,,,
885,CORSO INDIPENDENZA,9.21471413377106,45.4677655154048,ciclabili,,,,
886,CORSO INDIPENDENZA,9.21331481256404,45.468123098225,ciclabili,,,,
887,VIA ALBERTO DA GIUSSANO,9.16433025444362,45.4682321308332,ciclabili,,,,
888,PIAZZA SAN MARCO,9.18778550054839,45.4728134491507,ciclabili,,,,
889,PIAZZA DUCA D'AOSTA,9.20356033011626,45.4840873997631,ciclabili,,,,
890,VIALE FRANCESCO RESTELLI,9.19579691871441,45.4882531643771,ciclabili,,,,
891,CAVALCAVIA BUCCARI,9.23772178416776,45.4694645786457,ciclabili,,,,
892,CAVALCAVIA BUCCARI,9.23805630026505,45.4695252670166,ciclabili,,,,
893,PIAZZA DUCA D'AOSTA,9.20401229994172,45.4843054987587,ciclabili,,,,
894,VIALE ALCIDE DE GASPERI,9.14318724197574,45.4865825557924,ciclabili,,,,
895,VIALE ALCIDE DE GASPERI,9.14368799532072,45.4866169000496,ciclabili,,,,
896,VIA PALMANOVA,9.25224108957009,45.508066186643,ciclabili,,,,
897,VIA FILIPPO DE PISIS,9.1413112263736,45.511422916204,ciclabili,,,,
898,VIA FILIPPO DE PISIS,9.14146087242127,45.5114445587713,ciclabili,,,,
899,PIAZZA GIAN ANTONIO MAGGI,9.17108186070926,45.4375877565586,ciclabili,,,,
900,VIA CASTELLAMMARE,9.13783298900105,45.5107565614927,ciclabili,,,,
901,VIA FILIPPO DE PISIS,9.14349339039382,45.5115705181705,ciclabili,,,,
902,VIA FILIPPO DE PISIS,9.13976136384102,45.5121202168066,ciclabili,,,,
903,VIA FILIPPO DE PISIS,9.14469527596039,45.5115805717961,ciclabili,,,,
904,VIA FILIPPO DE PISIS,9.14537815776563,45.5115877161157,ciclabili,,,,
905,VIA CASTELLAMMARE,9.14492577272683,45.5110787474813,ciclabili,,,,
906,PIAZZA RISORGIMENTO,9.21088257697167,45.4681090154548,ciclabili,,,,
907,VIA DELLE FORZE ARMATE,9.11624786728696,45.460565497921,ciclabili,,,,
908,PIAZZA RISORGIMENTO,9.21123986671153,45.4677222146584,ciclabili,,,,
909,PIAZZALE GIUSEPPE PERRUCCHETTI,9.12719951053671,45.4654258304331,ciclabili,,,,
910,PIAZZA 8 NOVEMBRE 1917,9.21078315361221,45.4743968266499,ciclabili,,,,
911,PIAZZA RISORGIMENTO,9.21019970457018,45.4681395494904,ciclabili,,,,
912,VIA PALMANOVA,9.24036346374514,45.4990881169279,ciclabili,,,,
913,VIA PADOVA,9.22320995644088,45.490848239069,ciclabili,,,,
914,VIA GIOVANNI LORENZINI,9.2027468957781,45.4441578911822,ciclabili,,,,
915,VIA MELCHIORRE GIOIA,9.19234798635184,45.4823876604663,ciclabili,,,,
916,VIA SENATO,9.19663001343583,45.4711464693349,ciclabili,,,,
917,VIA SENATO,9.19795555814799,45.4700448728848,ciclabili,,,,
918,VIA FRATELLI CASTIGLIONI,9.18841599299273,45.4831753082181,ciclabili,,,,
919,VIA GIOVANNI LORENZINI,9.20326110712349,45.4442430418731,ciclabili,,,,
920,VIA GATTAMELATA,9.15466879859775,45.482030114722,ciclabili,,,,
921,VIA GALLARATE,9.10231655120092,45.5057408382105,ciclabili,,,,
922,VIA EDOARDO CHINOTTO,9.12698301075743,45.4662128189203,ciclabili,,,,
923,PIAZZA SAN GIOACHIMO,9.19782790631259,45.4810889666517,ciclabili,,,,
924,VIALE DELL'AVIAZIONE,9.25970591073793,45.4547271233183,ciclabili,,,,
925,VIALE ROMAGNA,9.22399748546308,45.4704507038127,ciclabili,,,,
926,VIA CUSAGO,9.06665034338342,45.4566984442421,ciclabili,,,,
927,VIA ELIO VITTORINI,9.26382549324732,45.4446515892511,ciclabili,,,,
928,VIA GIUSEPPE REVERE,9.17088775695854,45.471149358846,ciclabili,,,,
929,PIAZZA LEGA LOMBARDA,9.18034444751778,45.4773085692131,ciclabili,,,,
930,VIA TOFANE,9.2193100245639,45.5030815908704,ciclabili,,,,
931,VIA CESARE ARICI,9.23782037895375,45.5049088904891,ciclabili,,,,
932,VIA ALESSIO OLIVIERI,9.11340912925223,45.4647212182151,ciclabili,,,,
933,VIA VITTOR PISANI,9.19988058358928,45.4816787507131,ciclabili,,,,
934,VIA GIOSUE' CARDUCCI,9.17668765225708,45.4676455592904,ciclabili,,,,
935,VIA GIOSUE' CARDUCCI,9.17631914818537,45.4671182093985,ciclabili,,,,
936,VIA IDRO,9.25438052999914,45.5120178876626,ciclabili,,,,
937,VIA LUIGI BERTELLI,9.23457873702084,45.5043438980508,ciclabili,,,,
938,VIA AGORDAT,9.23216211951579,45.5034649758932,ciclabili,,,,
939,STRADA DEL MOLINETTO DI LORENTEGGIO,9.11958009525052,45.4385087154545,ciclabili,,,,
940,VIA UMBERTO VISCONTI DI MODRONE,9.200119215017,45.4648240187361,ciclabili,,,,
941,VIA TOFANE,9.21387458710586,45.4986913877702,ciclabili,,,,
942,VIA TOFANE,9.21563670174382,45.499339064824,ciclabili,,,,
943,VIA GALLARATE,9.10144444281539,45.5058375960388,ciclabili,,,,
944,VIA GALLARATE,9.10709576274629,45.5044678872153,ciclabili,,,,
945,VIA GALLARATE,9.11597348309262,45.5023235040735,ciclabili,,,,
946,VIA GALLARATE,9.11838798797586,45.5017507074676,ciclabili,,,,
947,VIA GALLARATE,9.11460429314748,45.502649787905,ciclabili,,,,
948,VIA GALLARATE,9.11370856945273,45.5028600663108,ciclabili,,,,
949,VIA BISCEGLIE,9.12029954752778,45.4471243393114,ciclabili,,,,
950,VIA BISCEGLIE,9.12084493886145,45.447246539538,ciclabili,,,,
951,VIA ARCANGELO CORELLI,9.25251109699448,45.471064680022,ciclabili,,,,
952,VIA TUCIDIDE,9.24522660092436,45.4701388289334,ciclabili,,,,
953,VIA VAL BAVONA,9.12594961613169,45.4488590515384,ciclabili,,,,
954,CORSO VENEZIA,9.20203571238912,45.4715593873301,ciclabili,,,,
955,CORSO VENEZIA,9.20236360435408,45.4719119277486,ciclabili,,,,
956,VIA PALESTRO,9.20217524451689,45.4721028754257,ciclabili,,,,
957,CORSO COMO,9.1872469633528,45.4817339281382,ciclabili,,,,
958,VIALE CITTA DI FIUME,9.19926938049151,45.4769651487319,ciclabili,,,,
959,VIA LUIGI BERTELLI,9.23200040931949,45.5040022172177,ciclabili,,,,
960,VIALE DELL'AVIAZIONE,9.25499610939877,45.4600498230363,ciclabili,,,,
961,VIA GUIDO VENOSTA,9.20897651602613,45.5086334675383,ciclabili,,,,
962,PIAZZA GIAN ANTONIO MAGGI,9.17038286952229,45.4378700365767,ciclabili,,,,
963,VIA PALMANOVA,9.2408108724758,45.4994124652189,ciclabili,,,,
964,VIA TIRANO,9.20882215613514,45.4973933444189,ciclabili,,,,
965,PIAZZA CARBONARI,9.19928969627688,45.4930668036398,ciclabili,,,,
966,VIA MELCHIORRE GIOIA,9.19604960015031,45.485083282104,ciclabili,,,,
967,VIALE DELL'INNOVAZIONE,9.21028605674286,45.5095999751147,ciclabili,,,,
968,VIA PADOVA,9.22330335720021,45.4912638279112,ciclabili,,,,
969,VIA PADOVA,9.22316970985134,45.4913081688201,ciclabili,,,,
970,VIA PADOVA,9.2232421014578,45.4912251982785,ciclabili,,,,
971,PIAZZALE FERDINANDO MARTINI,9.22171683145747,45.4575628145606,ciclabili,,,,
972,PIAZZALE FERDINANDO MARTINI,9.22165147500098,45.4575061391979,ciclabili,,,,
973,VIA CARLA MILLY MIGNONE,9.10677943373397,45.471957821518,ciclabili,,,,
974,VIA CARLA MILLY MIGNONE,9.10776980276264,45.472145647531,ciclabili,,,,
975,VIA CASTELLAMMARE,9.14600740610791,45.5112135733462,ciclabili,,,,
976,VIALE TURCHIA,9.25519176225154,45.4946655851055,ciclabili,,,,
977,VIA ETTORE MAJORANA,9.18790034659588,45.513026197054,ciclabili,,,,
978,VIA VALSESIA,9.09784329280892,45.4515050502831,ciclabili,,,,
979,VIA ETTORE MAJORANA,9.18471705126515,45.5136957146461,ciclabili,,,,
980,PIAZZA GIAN ANTONIO MAGGI,9.17061722067366,45.437381655187,ciclabili,,,,
981,LARGO CAIROLI,9.1817675927981,45.4682269696973,ciclabili,,,,
982,CAVALCAVIA DON LORENZO MILANI,9.14528900867557,45.4471827697193,ciclabili,,,,
983,VIA VITTORIO GASSMAN,9.24145066133287,45.5137558469215,ciclabili,,,,
984,BASTIONI DI PORTA VENEZIA,9.20260922257724,45.4754145288624,ciclabili,,,,
985,VIALE ALCIDE DE GASPERI,9.13364672890385,45.4932453095596,ciclabili,,,,
986,VIALE ALCIDE DE GASPERI,9.13370124497319,45.4932220938935,ciclabili,,,,
987,BASTIONI DI PORTA VENEZIA,9.20100992152275,45.4761430245556,ciclabili,,,,
988,BASTIONI DI PORTA VENEZIA,9.20460055422682,45.4744453665078,ciclabili,,,,
989,BASTIONI DI PORTA VENEZIA,9.20481888564496,45.4743353679872,ciclabili,,,,
990,BASTIONI DI PORTA VENEZIA,9.20512767893014,45.4741781006597,ciclabili,,,,
991,BASTIONI DI PORTA VENEZIA,9.20511041646722,45.4738626342262,ciclabili,,,,
992,BASTIONI DI PORTA VENEZIA,9.20478855728423,45.474012144044,ciclabili,,,,
993,CORSO VENEZIA,9.20366881922006,45.4732083854235,ciclabili,,,,
994,VIA VITTORIO GASSMAN,9.2374210539947,45.5128593909206,ciclabili,,,,
995,VIA VITTORIO GASSMAN,9.24010138848821,45.5134737670302,ciclabili,,,,
996,VIA VITTORIO GASSMAN,9.23848528788881,45.5131389538363,ciclabili,,,,
997,VIA VITTORIO GASSMAN,9.23759296171911,45.5129522864219,ciclabili,,,,
998,VIA RICCARDO BACCHELLI,9.10703228347528,45.4969694323841,ciclabili,,,,
999,ALZAIA NAVIGLIO GRANDE,9.17244263228728,45.4513926174606,ciclabili,,,,
1000,VIA EUGENIO MONTALE,9.1162098993033,45.4891196339582,ciclabili,,,,
1001,VIA VITTOR PISANI,9.19926528312307,45.4810664127996,ciclabili,,,,
1002,CAVALCAVIA DON LORENZO MILANI,9.14691720416619,45.4443835417515,ciclabili,,,,
1003,VIALE FRANCESCO RESTELLI,9.1952649285047,45.487835976255,ciclabili,,,,
1004,VIALE CITTA DI FIUME,9.19829404639781,45.4772091642058,ciclabili,,,,
1005,VIA GIULIO CONFALONIERI,9.13873779319458,45.5077243930704,ciclabili,,,,
1006,VIA PALMANOVA,9.25354807794693,45.5090253015341,ciclabili,,,,
1007,VIA FILIPPO DE PISIS,9.14283400353039,45.5115644118997,ciclabili,,,,
1008,VIA FILIPPO DE PISIS,9.14316526521108,45.511567463187,ciclabili,,,,
1009,VIA MARIO PAGANO,9.17086830681214,45.4746290333224,ciclabili,,,,
1010,VIA GALLARATE,9.11225013570249,45.5032114632842,ciclabili,,,,
1011,VIA VITTOR PISANI,9.20029148882931,45.4820876607255,ciclabili,,,,
1012,VIA FILIPPO DE PISIS,9.13892224832217,45.5110415848783,ciclabili,,,,
1013,VIA FILIPPO DE PISIS,9.1406120012754,45.5113050156081,ciclabili,,,,
1014,VIA GALLARATE,9.09951342366688,45.5064652715913,ciclabili,,,,
1015,PIAZZA RISORGIMENTO,9.21016096070267,45.4677001882669,ciclabili,,,,
1016,VIA SAN MARCO,9.18940361851938,45.4792104566434,ciclabili,,,,
1017,VIALE ACHILLE PAPA,9.14345148151542,45.4906207303884,ciclabili,,,,
1018,PIAZZA BRUNO BUOZZI,9.20595637523782,45.4498100454498,ciclabili,,,,
1019,PARCO LAMBRO,9.25117178341757,45.4998222830321,ciclabili,,,,
1020,PARCO LAMBRO,9.24735131907549,45.4985413149824,ciclabili,,,,
1021,CORSO VENEZIA,9.20244511456802,45.4720216494625,ciclabili,,,,
1022,VIA ANTONIO CECHOV,9.11578444544503,45.4937345150645,ciclabili,,,,
1023,VIA GALLARATE,9.11324315192213,45.5030810171521,ciclabili,,,,
1024,PIAZZA BRUNO BUOZZI,9.20614535340943,45.4491589259045,ciclabili,,,,
1025,VIALE MARCHE,9.18762448019959,45.497265041932,ciclabili,,,,
1026,VIALE MARCHE,9.19678408609284,45.4948067435435,ciclabili,,,,
1027,PIAZZA BRUNO BUOZZI,9.20630819440128,45.4495834949488,ciclabili,,,,
1028,PIAZZA BRUNO BUOZZI,9.20574126197833,45.44942612581,ciclabili,,,,
1029,PIAZZA BRUNO BUOZZI,9.205963116542,45.4492040226217,ciclabili,,,,
1030,PIAZZA BRUNO BUOZZI,9.20652026412507,45.4492334505232,ciclabili,,,,
1031,PIAZZA BRUNO BUOZZI,9.2063093539305,45.4491497934343,ciclabili,,,,
1032,PIAZZA BRUNO BUOZZI,9.20663335345327,45.4493621634811,ciclabili,,,,
1033,VIA GALLARATE,9.11925407684538,45.501676516676,ciclabili,,,,
1034,VIA VITTORIO GASSMAN,9.24118979419972,45.5137251173927,ciclabili,,,,
1035,VIA VITTORIO GASSMAN,9.23744756838914,45.5129384439412,ciclabili,,,,
1036,VIA GALLARATE,9.107735450738,45.5044113219924,ciclabili,,,,
1037,VIA VAL BAVONA,9.12227954068138,45.4478186927851,ciclabili,,,,
1038,VIA VAL BAVONA,9.12531227113089,45.4486884878553,ciclabili,,,,
1039,VIA VAL BAVONA,9.12459039348369,45.4485013202349,ciclabili,,,,
1040,VIA VAL BAVONA,9.12386490179537,45.4483287499547,ciclabili,,,,
1041,VIA BISCEGLIE,9.12065993832837,45.4473208553912,ciclabili,,,,
1042,VIA VITTORIO GASSMAN,9.23618560271223,45.5140932685723,ciclabili,,,,
1043,VIALE MARCHE,9.18910309628718,45.4968799515351,ciclabili,,,,
1044,VIALE LUNIGIANA,9.20311355869888,45.4927586125379,ciclabili,,,,
1045,VIALE LUNIGIANA,9.20243996673171,45.4927491991429,ciclabili,,,,
1046,VIA ETTORE MAJORANA,9.18415506156405,45.5131524935513,ciclabili,,,,
1047,VIA PADOVA,9.221041286772,45.4893324472923,ciclabili,,,,
1048,VIALE MARCHE,9.19694930441913,45.4950578847299,ciclabili,,,,
1049,VIA DEGLI AILANTI,9.1520920727262,45.5014679443503,ciclabili,,,,
1050,VIALE MARCHE,9.19370814348072,45.4959342033376,ciclabili,,,,
1051,VIALE MARCHE,9.19257386808005,45.4962405872963,ciclabili,,,,
1052,VIALE MARCHE,9.1906334180224,45.4967638159003,ciclabili,,,,
1053,VIALE MARCHE,9.18913694480105,45.4971631693172,ciclabili,,,,
1054,VIA ARIOLI VENEGONI,9.11126128702947,45.4688164470429,ciclabili,,,,
1055,VIALE FRANCESCO RESTELLI,9.19442757925788,45.4867356106494,ciclabili,,,,
1056,VIALE FRANCESCO RESTELLI,9.19461728440883,45.4866011813107,ciclabili,,,,
1057,VIA ARIOLI VENEGONI,9.11273966926958,45.4663315138944,ciclabili,,,,
1058,VIA ARIOLI VENEGONI,9.11222049662781,45.4669798542996,ciclabili,,,,
1059,VIA ARIOLI VENEGONI,9.11216754783414,45.46741685621,ciclabili,,,,
1060,VIALE MARCHE,9.19559486510038,45.4954271678537,ciclabili,,,,
1061,VIALE MARCHE,9.19052904926271,45.4964892678278,ciclabili,,,,
1062,VIALE MARCHE,9.19244775275071,45.4959734562565,ciclabili,,,,
1063,VIALE MARCHE,9.19331246368676,45.4957409690896,ciclabili,,,,
1064,VIA PADOVA,9.22231498996339,45.4902968197777,ciclabili,,,,
1065,VIA PADOVA,9.22332359126055,45.4909008050019,ciclabili,,,,
1066,VIALE MARCHE,9.19868697726116,45.494566368352,ciclabili,,,,
1067,VIALE MARCHE,9.19535376937414,45.4951908998416,ciclabili,,,,
1068,VIA GIOVANNI CIMABUE,9.1325371937309,45.4932160525341,ciclabili,,,,
1069,VIA FILIPPO MARIA BELTRAMI,9.11562427167803,45.4587435768747,ciclabili,,,,
1070,VIA FILIPPO MARIA BELTRAMI,9.11578688643772,45.4585750925945,ciclabili,,,,
1071,LARGO ALDO DE BENEDETTI,9.19425577019198,45.4860114420091,ciclabili,,,,
1072,PIAZZA GAE AULENTI,9.18944958447001,45.4832979826571,ciclabili,,,,
1073,VIALE MARCHE,9.19839225094567,45.4943937964998,ciclabili,,,,
1074,PIAZZA CARBONARI,9.20023710539959,45.4938484341437,ciclabili,,,,
1075,PIAZZA CARBONARI,9.20102646023884,45.4935099915506,ciclabili,,,,
1076,VIALE LUNIGIANA,9.20156957038481,45.4932236778317,ciclabili,,,,
1077,VIALE LUNIGIANA,9.20164759633574,45.4934477818505,ciclabili,,,,
1078,VIA GIOVANNI CIMABUE,9.13090291482808,45.4928885151709,ciclabili,,,,
1079,LARGO ALDO DE BENEDETTI,9.19393461800097,45.4859656650821,ciclabili,,,,
1080,VIALE FERDINANDO DI SAVOIA,9.19772323186726,45.480950633817,ciclabili,,,,
1081,VIA DEGLI AILANTI,9.15194703852983,45.5016327305263,ciclabili,,,,
1082,VIA BENEDETTO CROCE,9.12964168330539,45.492652793103,ciclabili,,,,
1083,VIA BENEDETTO CROCE,9.1295072286446,45.4926229465574,ciclabili,,,,
1084,VIA COL MOSCHIN,9.18506290490611,45.4508117167972,ciclabili,,,,
1085,VIA VOLTURNO,9.19124831745785,45.4881983967638,ciclabili,,,,
1086,VIA VOLTURNO,9.19131361327851,45.4879084384202,ciclabili,,,,
1087,VIA VOLTURNO,9.19138113302719,45.4876080612645,ciclabili,,,,
1088,VIA VOLTURNO,9.19147770910536,45.487168354705,ciclabili,,,,
1089,VIA VOLTURNO,9.19133859783721,45.4871351850829,ciclabili,,,,
1090,VIA FRANCESCO CILEA,9.1060115313371,45.49436133971,ciclabili,,,,
1091,VIA GIOVANNI LORENZINI,9.20299707450796,45.4442925684999,ciclabili,,,,
1092,VIA ADAMELLO,9.20308834492294,45.4428271920273,ciclabili,,,,
1093,VIA ADAMELLO,9.20333153121702,45.4428275413423,ciclabili,,,,
1094,VIA GALILEO GALILEI,9.19668843788425,45.4806074574302,ciclabili,,,,
1095,VIA BASILEA,9.11474688487275,45.4566247953718,ciclabili,,,,
1096,PIAZZA ERMETE NOVELLI,9.21994858740619,45.470564841276,ciclabili,,,,
1097,VIA GAETANO DE CASTILLA,9.19043231408748,45.4855094192737,ciclabili,,,,
1098,VIA CERVIGNANO,9.22174398789696,45.4586746903892,ciclabili,,,,
1099,VIA CERVIGNANO,9.22196552108058,45.4601911637728,ciclabili,,,,
1100,VIA PELLEGRINO ROSSI,9.1762701296608,45.5100335297129,ciclabili,,,,
1101,VIA GAETANO DE CASTILLA,9.19336598930511,45.4858885903975,ciclabili,,,,
1102,VIA MARIO PAGANO,9.16055971290212,45.46797430087,ciclabili,,,,
1103,VIA GALILEO GALILEI,9.19632707231933,45.4803861956261,ciclabili,,,,
1104,PIAZZA ERMETE NOVELLI,9.21933389766121,45.4712871480635,ciclabili,,,,
1105,PIAZZA SAN GIOACHIMO,9.19746280229008,45.4810961909584,ciclabili,,,,
1106,VIA PELLEGRINO ROSSI,9.17406581206666,45.5131736912624,ciclabili,,,,
1107,VIA VIPITENO,9.24049988891482,45.5121024229742,ciclabili,,,,
1108,VIA FERDINANDO MARESCALCHI,9.23418265333133,45.4687228798015,ciclabili,,,,
1109,VIA MECENATE,9.24764940865517,45.45299525539,ciclabili,,,,
1110,VIA BASILEA,9.11455603124754,45.4565490520257,ciclabili,,,,
1111,VIA PRINCIPE EUGENIO,9.16706518021848,45.4932814588849,ciclabili,,,,
1112,VIA PRINCIPE EUGENIO,9.16416178200518,45.4947834451536,ciclabili,,,,
1113,PIAZZA CASTELLO,9.1796224671108,45.4688320104691,ciclabili,,,,
1114,PIAZZA CASTELLO,9.18113380794992,45.4690738904064,ciclabili,,,,
1115,PIAZZA CASTELLO,9.18157602194732,45.4702477505619,ciclabili,,,,
1116,VIA GIUSEPPE VERDI,9.18848851979189,45.4687836515719,ciclabili,,,,
1117,VIA MECENATE,9.24806795707789,45.4526832078137,ciclabili,,,,
1118,CORSO GIUSEPPE GARIBALDI,9.18392660760821,45.4722802945115,ciclabili,,,,
1119,LARGO CAIROLI,9.18152322783398,45.468509713159,ciclabili,,,,
1120,LARGO CAIROLI,9.18261898455272,45.4684454008706,ciclabili,,,,
1121,LARGO CAIROLI,9.18190135566996,45.4687832395196,ciclabili,,,,
1122,LARGO CAIROLI,9.18191559664517,45.4684714829165,ciclabili,,,,
1123,PIAZZA CASTELLO,9.18108168970204,45.4688166024352,ciclabili,,,,
1124,PIAZZA CASTELLO,9.18150518537882,45.4691007976369,ciclabili,,,,
1125,LARGO CAIROLI,9.18292762593194,45.4684518562441,ciclabili,,,,
1126,LARGO CAIROLI,9.1820354961916,45.467710364688,ciclabili,,,,
1127,LARGO CAIROLI,9.18229284498548,45.4678040473981,ciclabili,,,,
1128,VIA MELCHIORRE GIOIA,9.19269010884899,45.482295385992,ciclabili,,,,
1129,VIA MELCHIORRE GIOIA,9.19222326425002,45.4820825444964,ciclabili,,,,
1130,VIA MELCHIORRE GIOIA,9.19234618120865,45.482165738286,ciclabili,,,,
1131,VIALE MONTE GRAPPA,9.18928232932937,45.4808424276572,ciclabili,,,,
1132,VIALE TUNISIA,9.20627710683026,45.4770342879503,ciclabili,,,,
1133,VIA GIOVANNI LANZA,9.18172088897564,45.4715326314847,ciclabili,,,,
1134,FORO BUONAPARTE,9.18264877062411,45.4719127697458,ciclabili,,,,
1135,FORO BUONAPARTE,9.18216369646414,45.471694355027,ciclabili,,,,
1136,VIALE TUNISIA,9.20607396813996,45.4769113258094,ciclabili,,,,
1137,VIALE TUNISIA,9.20098281032871,45.4793651018541,ciclabili,,,,
1138,VIALE TUNISIA,9.20000318609766,45.4797962360746,ciclabili,,,,
1139,VIALE TUNISIA,9.19919129640526,45.4801827938485,ciclabili,,,,
1140,VIALE DELLA LIBERAZIONE,9.19668585319629,45.481252932202,ciclabili,,,,
1141,VIA GALILEO GALILEI,9.1964629085655,45.4805180542403,ciclabili,,,,
1142,VIALE FERDINANDO DI SAVOIA,9.19840381806628,45.4804529585966,ciclabili,,,,
1143,VIALE FERDINANDO DI SAVOIA,9.19822834412272,45.48072081808,ciclabili,,,,
1144,PIAZZA SAN GIOACHIMO,9.19757476780633,45.480916686393,ciclabili,,,,
1145,VIA AGORDAT,9.23453208031498,45.5014141550406,ciclabili,,,,
1146,PIAZZA VENTIQUATTRO MAGGIO,9.18007996474374,45.4526536185599,ciclabili,,,,
1147,VIA VARESINA,9.14004095350064,45.5023126106904,ciclabili,,,,
1148,PIAZZA VENTIQUATTRO MAGGIO,9.17932133214536,45.452423281859,ciclabili,,,,
1149,PIAZZA VENTIQUATTRO MAGGIO,9.17999571256905,45.4523279613264,ciclabili,,,,
1150,PIAZZA VENTIQUATTRO MAGGIO,9.18056509360287,45.4522902070099,ciclabili,,,,
1151,PIAZZA VENTIQUATTRO MAGGIO,9.18043711325553,45.4526135653469,ciclabili,,,,
1152,PIAZZA VENTIQUATTRO MAGGIO,9.18044653763979,45.4522224857849,ciclabili,,,,
1153,VIALE ROMAGNA,9.22345689059404,45.4779296467993,ciclabili,,,,
1154,VIALE ROMAGNA,9.22401873069489,45.4695947029887,ciclabili,,,,
1155,VIALE ACHILLE PAPA,9.14147361686527,45.4911636971664,ciclabili,,,,
1156,VIA ERNESTO BREDA,9.21081344166176,45.5069247207702,ciclabili,,,,
1157,VIALE CAMAPANIA,9.22396416929126,45.467345767799,ciclabili,,,,
1158,VIALE ROMAGNA,9.22374912611856,45.4742789666375,ciclabili,,,,
1159,VIALE GORIZIA,9.17836117810693,45.4522725959252,ciclabili,,,,
1160,VIALE ROMAGNA,9.22369190831278,45.477789638814,ciclabili,,,,
1161,VIALE ROMAGNA,9.22333685764405,45.4781241231101,ciclabili,,,,
1162,VIALE GORIZIA,9.17880305151087,45.4523050643462,ciclabili,,,,
1163,VIALE GORIZIA,9.17774007139594,45.4523509883734,ciclabili,,,,
1164,VIA EMILIO FAA' DI BRUNO,9.22188384525865,45.4521320882306,ciclabili,,,,
1165,VIA EMILIO FAA' DI BRUNO,9.22282510951799,45.4515773874497,ciclabili,,,,
1166,VIA MELCHIORRE GIOIA,9.19025691004866,45.4802603459229,ciclabili,,,,
1167,VIA ERNESTO BREDA,9.21369995885325,45.509195033542,ciclabili,,,,
1168,PIAZZA CARBONARI,9.19890497978658,45.4933457139455,ciclabili,,,,
1169,VIA ARCANGELO CORELLI,9.26199224501109,45.4701741077243,ciclabili,,,,
1170,VIA VITTOR PISANI,9.20132546204523,45.4831376816815,ciclabili,,,,
1171,VIA ELIO VITTORINI,9.26343245961241,45.4446874966669,ciclabili,,,,
1172,CORSO LODI,9.21773276793403,45.443197670461,ciclabili,,,,
1173,CORSO LODI,9.20987239656514,45.4477114169747,ciclabili,,,,
1174,CORSO LODI,9.20908272613131,45.4477271162848,ciclabili,,,,
1175,CORSO LODI,9.20913013899185,45.4477815428877,ciclabili,,,,
1176,PIAZZALE GABIELE ROSA,9.22399837836054,45.4381329725195,ciclabili,,,,
1177,CORSO LODI,9.20959647487064,45.4476037040737,ciclabili,,,,
1178,PIAZZA CARBONARI,9.2003085752147,45.4928270624563,ciclabili,,,,
1179,VIA TORTONA,9.16259112744594,45.451775241295,ciclabili,,,,
1180,VIA ENRICO STENDHAL,9.16030807507191,45.4520015074892,ciclabili,,,,
1181,VIA ENRICO STENDHAL,9.15971752291996,45.452693289898,ciclabili,,,,
1182,VIA MONTEVIDEO,9.16514183384359,45.4578081956003,ciclabili,,,,
1183,PIAZZA CARBONARI,9.20084914860238,45.4929123457336,ciclabili,,,,
1184,VIA COLA DI RIENZO,9.15715773054588,45.4551701179269,ciclabili,,,,
1185,VIA ENRICO STENDHAL,9.15765584642887,45.4560721523127,ciclabili,,,,
1186,VIA COLA DI RIENZO,9.156741528998,45.4551700121754,ciclabili,,,,
1187,VIA COLA DI RIENZO,9.16053262482597,45.4563619420366,ciclabili,,,,
1188,ALZAIA NAVIGLIO GRANDE,9.16491798103142,45.4498088277184,ciclabili,,,,
1189,ALZAIA NAVIGLIO GRANDE,9.15828872742919,45.4484198790959,ciclabili,,,,
1190,ALZAIA NAVIGLIO GRANDE,9.1467988808753,45.4459753646941,ciclabili,,,,
1191,VIA CASTELLAMMARE,9.13452566210931,45.5108670396427,ciclabili,,,,
1192,VIA BENEDETTO CROCE,9.12548712001954,45.4934734933365,ciclabili,,,,
1193,VIA NVPR DA CHIARELLI A NATTA,9.12188622441033,45.4905011514976,ciclabili,,,,
1194,VIA BENEDETTO CROCE,9.11823411234607,45.4946445011945,ciclabili,,,,
1195,VIA MOISE' LORIA,9.15941548043551,45.4566492899694,ciclabili,,,,
1196,PIAZZA CARBONARI,9.20165449532974,45.4941040104284,ciclabili,,,,
1197,VIA LUIGI CHIARELLI,9.12463862863873,45.4924172799468,ciclabili,,,,
1198,VIA LUIGI CHIARELLI,9.12328580271934,45.4928403853157,ciclabili,,,,
1199,VIA BENEDETTO CROCE,9.12141833265742,45.4938341492752,ciclabili,,,,
1200,VIA BENEDETTO CROCE,9.11971154832478,45.4944083063972,ciclabili,,,,
1201,VIA EMANUELE KANT,9.11649183078005,45.494789807862,ciclabili,,,,
1202,VIA ANTONIO CECHOV,9.11429076648224,45.4947595149301,ciclabili,,,,
1203,VIA ANTONIO CECHOV,9.11309427982729,45.4957065034771,ciclabili,,,,
1204,VIA ANTONIO CECHOV,9.11343310410522,45.4955098843057,ciclabili,,,,
1205,VIA ANTONIO CECHOV,9.11317840106502,45.4956667260112,ciclabili,,,,
1206,VIA ANTONIO CECHOV,9.11372201412008,45.4953456859859,ciclabili,,,,
1207,VIA ANTONIO CECHOV,9.11227087496949,45.4960201424524,ciclabili,,,,
1208,VIA ANTONIO CECHOV,9.11136698558846,45.4961832573027,ciclabili,,,,
1209,VIA ANTONIO CECHOV,9.11119379227392,45.4963222803633,ciclabili,,,,
1210,PIAZZALE DATEO,9.21597754893428,45.4677779214108,ciclabili,,,,
1211,CORSO INDIPENDENZA,9.21333577108445,45.4677500895544,ciclabili,,,,
1212,VIA FRANCESCO CILEA,9.10677714198215,45.4972395400288,ciclabili,,,,
1213,VIA MARIO BORSA,9.10196335909149,45.5011539189754,ciclabili,,,,
1214,VIA MARIO BORSA,9.09840594462215,45.5034972890926,ciclabili,,,,
1215,VIA MARIO BORSA,9.09471511323207,45.5048804174608,ciclabili,,,,
1216,VIA MARIO BORSA,9.09379053893788,45.5053266462293,ciclabili,,,,
1217,VIA GATTAMELATA,9.1506144555869,45.4851850190085,ciclabili,,,,
1218,VIA GATTAMELATA,9.14994960219974,45.4855027909085,ciclabili,,,,
1219,VIA GATTAMELATA,9.15033735632511,45.4850733257282,ciclabili,,,,
1220,PIAZZA CARBONARI,9.20102527482077,45.4947059972348,ciclabili,,,,
1221,PIAZZA CARBONARI,9.19939674674398,45.4947404291818,ciclabili,,,,
1222,VIA GATTAMELATA,9.15177862675318,45.48405221844,ciclabili,,,,
1223,VIA GATTAMELATA,9.15235445803959,45.4837800623111,ciclabili,,,,
1224,VIA GATTAMELATA,9.15434594289474,45.482112367185,ciclabili,,,,
1225,VIALE RENATO SERRA,9.14747201483466,45.4873092490856,ciclabili,,,,
1226,VIA MONTE ROSA,9.14410900112297,45.4790214728163,ciclabili,,,,
1227,VIA MONTE ROSA,9.14380667856433,45.4791299827108,ciclabili,,,,
1228,VIA MONTE ROSA,9.14373743099025,45.4790529739104,ciclabili,,,,
1229,PIAZZALE LORENZO LOTTO,9.14349763317553,45.4791173760293,ciclabili,,,,
1230,VIA BISCEGLIE,9.11548137292043,45.4537521811312,ciclabili,,,,
1231,VIA CARLO IMBONATI,9.17884818427545,45.506364090544,ciclabili,,,,
1232,VIA CARLO IMBONATI,9.18062697949719,45.5040968848022,ciclabili,,,,
1233,VIALE EMILIO ALEMAGNA,9.17479019615402,45.4704315887878,ciclabili,,,,
1234,PIAZZA CASTELLO,9.17740136428454,45.4697460447265,ciclabili,,,,
1235,VIALE EMILIO ALEMAGNA,9.17279134879865,45.4724641891377,ciclabili,,,,
1236,VIALE EMILIO ALEMAGNA,9.17380121758942,45.4716777785375,ciclabili,,,,
1237,VIALE EMILIO ALEMAGNA,9.17295852529293,45.4720632672177,ciclabili,,,,
1238,VIA VITTOR PISANI,9.19888287225024,45.4805354879558,ciclabili,,,,
1239,PARCO SEGANTINI,9.17058033706996,45.4454060618832,ciclabili,,,,
1240,VIA MARIO BORSA,9.09866910932386,45.5034352496963,ciclabili,,,,
1241,VIA LUCIO CORNELIO SILLA,9.07110562778378,45.5005022551441,ciclabili,,,,
1242,VIA LUCIO CORNELIO SILLA,9.07224146536727,45.4966787977867,ciclabili,,,,
1243,VIA PIER PAOLO PASOLINI,9.10175339304946,45.5092762408996,ciclabili,,,,
1244,VIA PIER PAOLO PASOLINI,9.1009494755444,45.5123550223312,ciclabili,,,,
1245,VIA PIER PAOLO PASOLINI,9.10224195566638,45.5074828755136,ciclabili,,,,
1246,VIA ORTLES,9.20478392207403,45.4396802781748,ciclabili,,,,
1247,VIA CONDINO,9.20345192510994,45.4414626874415,ciclabili,,,,
1248,PIAZZA DELLA REPUBBLICA,9.19805592345715,45.4778442758707,ciclabili,,,,
1249,VIA BRERA,9.18794634028171,45.4699103717194,ciclabili,,,,
1250,VIA WERNER VON SIEMENS,9.2426933372582,45.5113498599834,ciclabili,,,,
1251,VIA WERNER VON SIEMENS,9.24306549108878,45.5114392964092,ciclabili,,,,
1252,VIA WERNER VON SIEMENS,9.23670056172566,45.5101749024125,ciclabili,,,,
1253,PIAZZA BRUNO BUOZZI,9.20605960321574,45.4498170983302,ciclabili,,,,
1254,VIA DEL RICORDO,9.24313148576084,45.5104006953538,ciclabili,,,,
1255,VIA VIPITENO,9.23760175115316,45.5114367135575,ciclabili,,,,
1256,VIA ORTLES,9.20483608812274,45.4394917053227,ciclabili,,,,
1257,VIA BRONI,9.20352332976546,45.4395061770427,ciclabili,,,,
1258,VIA GALLARATE,9.10377505119954,45.5056901727295,ciclabili,,,,
1259,VIA GALLARATE,9.10348550926209,45.5056435964481,ciclabili,,,,
1260,VIA GALLARATE,9.1040117161588,45.5054925033558,ciclabili,,,,
1261,VIA PIER PAOLO PASOLINI,9.10360896327619,45.5062001704438,ciclabili,,,,
1262,PARCO CASCINA MERLATA,9.10373832316273,45.5101086598768,ciclabili,,,,
1263,VIA MELCHIORRE GIOIA,9.20240275511487,45.490935491547,ciclabili,,,,
1264,VIALE EMILIO ALEMAGNA,9.1753677961622,45.4696799929724,ciclabili,,,,
1265,PIAZZA DELLA REPUBBLICA,9.19744075835073,45.4776499135886,ciclabili,,,,
1266,VIA COMACCHIO,9.21869111235769,45.4374415106738,ciclabili,,,,
1267,PIAZZA DELLA REPUBBLICA,9.19736068286807,45.4783821844885,ciclabili,,,,
1268,PIAZZA DELLA REPUBBLICA,9.19809333978957,45.4776062271786,ciclabili,,,,
1269,VIA CONDINO,9.20320725192371,45.4414726793026,ciclabili,,,,
1270,VIA BENEDETTO CROCE,9.12461848487838,45.4934098119462,ciclabili,,,,
1271,VIA PIO II,9.11445421213315,45.4707254078594,ciclabili,,,,
1272,VIA GATTAMELATA,9.14896410219111,45.4852621103284,ciclabili,,,,
1273,PIAZZA GIOVANNI AMENDOLA,9.15070826351077,45.4742979475109,ciclabili,,,,
1274,AREA VERDE DI VIA GAETANO DE CASTILLIA,9.19129590949024,45.4861382615891,ciclabili,,,,
1275,VIA MELCHIORRE GIOIA,9.20550592219912,45.4931894324744,ciclabili,,,,
1276,VIA MELCHIORRE GIOIA,9.20512090415319,45.4932183889848,ciclabili,,,,
1277,VIA MELCHIORRE GIOIA,9.19659226426547,45.4859305246031,ciclabili,,,,
1278,VIA MELCHIORRE GIOIA,9.19656261791886,45.4855266760361,ciclabili,,,,
1279,VIA MELCHIORRE GIOIA,9.19946887751948,45.4880073644118,ciclabili,,,,
1280,VIA MELCHIORRE GIOIA,9.20257741582303,45.4906464907247,ciclabili,,,,
1281,VICOLO PIERO MANZONI,9.18766461403283,45.4726945070546,ciclabili,,,,
1282,VIALE FRANCESCO RESTELLI,9.19548913119159,45.4877410614871,ciclabili,,,,
1283,VIA MERCATO,9.18392432330387,45.4720297246953,ciclabili,,,,
1284,VIA CESARE MUSATTI,9.12375266093997,45.5108286079078,ciclabili,,,,
1285,VIA CASTELLAMMARE,9.13783465438398,45.5105834735935,ciclabili,,,,
1286,VIA CASTELLAMMARE,9.13746218992187,45.5105525658402,ciclabili,,,,
1287,VIA CASTELLAMMARE,9.13693506093068,45.5105392053931,ciclabili,,,,
1288,VIA NICOLA FABRIZI,9.13246926673497,45.5109738076309,ciclabili,,,,
1289,VIA ANTONIO MAMBRETTI,9.13073881166012,45.5106878342331,ciclabili,,,,
1290,VIA ANTONIO MAMBRETTI,9.12917060287894,45.5110303113853,ciclabili,,,,
1291,VIA ANTONIO MAMBRETTI,9.12893804247921,45.5111797302415,ciclabili,,,,
1292,VIA ANTONIO MAMBRETTI,9.12904777064771,45.5111014424894,ciclabili,,,,
1293,LARGO UMBERTO BOCCIONI,9.12871614265682,45.5114495317799,ciclabili,,,,
1294,LARGO UMBERTO BOCCIONI,9.12851863407047,45.5117188002118,ciclabili,,,,
1295,LARGO UMBERTO BOCCIONI,9.12841961581406,45.5117202899838,ciclabili,,,,
1296,LARGO UMBERTO BOCCIONI,9.12830859432746,45.5117504793412,ciclabili,,,,
1297,LARGO UMBERTO BOCCIONI,9.12822577182336,45.5117624169311,ciclabili,,,,
1298,LARGO UMBERTO BOCCIONI,9.12816592770815,45.5117236450249,ciclabili,,,,
1299,LARGO UMBERTO BOCCIONI,9.12813249479227,45.5116785934506,ciclabili,,,,
1300,LARGO UMBERTO BOCCIONI,9.12810666100115,45.511635609831,ciclabili,,,,
1301,LARGO UMBERTO BOCCIONI,9.12807145332235,45.5115519972744,ciclabili,,,,
1302,LARGO UMBERTO BOCCIONI,9.12805574840045,45.511486330565,ciclabili,,,,
1303,VIA GIORGIO STEPHENSON,9.12582409213927,45.5114293065529,ciclabili,,,,
1304,VIA GIORGIO STEPHENSON,9.12567860332108,45.511366134446,ciclabili,,,,
1305,VIA GIORGIO STEPHENSON,9.12540184071756,45.5110669215614,ciclabili,,,,
1306,VIA GIORGIO STEPHENSON,9.12538238377117,45.5106812251278,ciclabili,,,,
1307,VIA GIORGIO STEPHENSON,9.1252412761435,45.5103275558514,ciclabili,,,,
1308,VIA GIORGIO STEPHENSON,9.12524946362413,45.5099089248685,ciclabili,,,,
1309,VIA GIORGIO STEPHENSON,9.12256950737512,45.512168869062,ciclabili,,,,
1310,VIA GIORGIO STEPHENSON,9.12206194289118,45.5122752429289,ciclabili,,,,
1311,VIA MARIO BORSA,9.10522544610965,45.4994744472128,ciclabili,,,,
1312,VIA MARIO BORSA,9.10552867968597,45.4991301027731,ciclabili,,,,
1313,VIA ENRICO FALCK,9.10637899780956,45.4983394140399,ciclabili,,,,
1314,PIAZZA FEDERICO BONOLA,9.10686700388241,45.4976624502822,ciclabili,,,,
1315,PIAZZA FEDERICO BONOLA,9.10717128109867,45.4978967485859,ciclabili,,,,
1316,VIA ANTONIO CECHOV,9.11166511551832,45.496291647981,ciclabili,,,,
